# 
# Header Description:
# 
# Version: v2.0.0.1 Platform: 10 Manufacturer: HUAWEI Model: LYA-AL00
# 
# Raw,ElapsedRealtimeMillis,TimeNanos,LeapSecond,TimeUncertaintyNanos,FullBiasNanos,BiasNanos,BiasUncertaintyNanos,DriftNanosPerSecond,DriftUncertaintyNanosPerSecond,HardwareClockDiscontinuityCount,Svid,TimeOffsetNanos,State,ReceivedSvTimeNanos,ReceivedSvTimeUncertaintyNanos,Cn0DbHz,PseudorangeRateMetersPerSecond,PseudorangeRateUncertaintyMetersPerSecond,AccumulatedDeltaRangeState,AccumulatedDeltaRangeMeters,AccumulatedDeltaRangeUncertaintyMeters,CarrierFrequencyHz,CarrierCycles,CarrierPhase,CarrierPhaseUncertainty,MultipathIndicator,SnrInDb,ConstellationType,AgcDb,CarrierFrequencyHz
# 
# Fix,Provider,Latitude,Longitude,Altitude,Speed,Accuracy,(UTC)TimeInMs
# 
# Nav,Svid,Type,Status,MessageId,Sub-messageId,Data(Bytes)
# 
NMEA,$GPGGA,032739.05,3030.729540,N,11424.438720,E,0,,0.0,0.0,M,,M,,*7F
,-62167219199997
Raw,3193744,1000000000,18,0.0,-1295494075599910144,0.0,333.564095198152,-443.3738618663531,0.0,1,10,0.0,0,0,10,0.0,-0.0,0.1,16,0.0,0.1,1.57542003E9,,,,0,,1,11.0,1.57542003E9
Raw,3193744,1000000000,18,0.0,-1295494075599910144,0.0,333.564095198152,-443.3738618663531,0.0,1,12,0.0,0,0,10,0.0,-0.0,0.1,16,0.0,0.1,1.57542003E9,,,,0,,1,11.0,1.57542003E9
Raw,3193744,1000000000,18,0.0,-1295494075599910144,0.0,333.564095198152,-443.3738618663531,0.0,1,20,0.0,0,0,10,0.0,-0.0,0.1,16,0.0,0.1,1.57542003E9,,,,0,,1,11.0,1.57542003E9
Raw,3193744,1000000000,18,0.0,-1295494075599910144,0.0,333.564095198152,-443.3738618663531,0.0,1,22,0.0,0,0,10,0.0,-0.0,0.1,16,0.0,0.1,1.57542003E9,,,,0,,1,11.0,1.57542003E9
Raw,3193744,1000000000,18,0.0,-1295494075599910144,0.0,333.564095198152,-443.3738618663531,0.0,1,23,0.0,0,0,10,0.0,-0.0,0.1,16,0.0,0.1,1.57542003E9,,,,0,,1,11.0,1.57542003E9
Raw,3193744,1000000000,18,0.0,-1295494075599910144,0.0,333.564095198152,-443.3738618663531,0.0,1,25,0.0,0,0,10,0.0,-0.0,0.1,16,0.0,0.1,1.57542003E9,,,,0,,1,11.0,1.57542003E9
Raw,3193744,1000000000,18,0.0,-1295494075599910144,0.0,333.564095198152,-443.3738618663531,0.0,1,26,0.0,0,0,10,0.0,-0.0,0.1,16,0.0,0.1,1.57542003E9,,,,0,,1,11.0,1.57542003E9
Raw,3193744,1000000000,18,0.0,-1295494075599910144,0.0,333.564095198152,-443.3738618663531,0.0,1,29,0.0,0,0,10,0.0,-0.0,0.1,16,0.0,0.1,1.57542003E9,,,,0,,1,11.0,1.57542003E9
Raw,3193744,1000000000,18,0.0,-1295494075599910144,0.0,333.564095198152,-443.3738618663531,0.0,1,31,0.0,0,0,10,0.0,-0.0,0.1,16,0.0,0.1,1.57542003E9,,,,0,,1,11.0,1.57542003E9
Raw,3193744,1000000000,18,0.0,-1295494075599910144,0.0,333.564095198152,-443.3738618663531,0.0,1,32,0.0,0,0,10,0.0,-0.0,0.1,16,0.0,0.1,1.57542003E9,,,,0,,1,11.0,1.57542003E9
Raw,3193744,1000000000,18,0.0,-1295494075599910144,0.0,333.564095198152,-443.3738618663531,0.0,1,1,0.0,0,0,10,0.0,-0.0,0.1,16,0.0,0.1,1.60256256E9,,,,0,,3,11.0,1.60256256E9
Raw,3193745,1000000000,18,0.0,-1295494075599910144,0.0,333.564095198152,-443.3738618663531,0.0,1,2,0.0,0,0,10,0.0,-0.0,0.1,16,0.0,0.1,1.59975002E9,,,,0,,3,11.0,1.59975002E9
Raw,3193745,1000000000,18,0.0,-1295494075599910144,0.0,333.564095198152,-443.3738618663531,0.0,1,3,0.0,0,0,10,0.0,-0.0,0.1,16,0.0,0.1,1.60481254E9,,,,0,,3,11.0,1.60481254E9
Raw,3193745,1000000000,18,0.0,-1295494075599910144,0.0,333.564095198152,-443.3738618663531,0.0,1,12,0.0,0,0,10,0.0,-0.0,0.1,16,0.0,0.1,1.60143744E9,,,,0,,3,11.0,1.60143744E9
Raw,3193745,1000000000,18,0.0,-1295494075599910144,0.0,333.564095198152,-443.3738618663531,0.0,1,13,0.0,0,0,10,0.0,-0.0,0.1,16,0.0,0.1,1.60087501E9,,,,0,,3,11.0,1.60087501E9
Raw,3193745,1000000000,18,0.0,-1295494075599910144,0.0,333.564095198152,-443.3738618663531,0.0,1,14,0.0,0,0,10,0.0,-0.0,0.1,16,0.0,0.1,1.59806246E9,,,,0,,3,11.0,1.59806246E9
Raw,3193745,1000000000,18,0.0,-1295494075599910144,0.0,333.564095198152,-443.3738618663531,0.0,1,6,0.0,0,0,10,0.0,-0.0,0.1,16,0.0,0.1,1.56109798E9,,,,0,,5,11.0,1.56109798E9
Raw,3193745,1000000000,18,0.0,-1295494075599910144,0.0,333.564095198152,-443.3738618663531,0.0,1,7,0.0,0,0,10,0.0,-0.0,0.1,16,0.0,0.1,1.56109798E9,,,,0,,5,11.0,1.56109798E9
Raw,3193745,1000000000,18,0.0,-1295494075599910144,0.0,333.564095198152,-443.3738618663531,0.0,1,8,0.0,0,0,10,0.0,-0.0,0.1,16,0.0,0.1,1.56109798E9,,,,0,,5,11.0,1.56109798E9
Raw,3193745,1000000000,18,0.0,-1295494075599910144,0.0,333.564095198152,-443.3738618663531,0.0,1,9,0.0,0,0,10,0.0,-0.0,0.1,16,0.0,0.1,1.56109798E9,,,,0,,5,11.0,1.56109798E9
Raw,3193745,1000000000,18,0.0,-1295494075599910144,0.0,333.564095198152,-443.3738618663531,0.0,1,10,0.0,0,0,10,0.0,-0.0,0.1,16,0.0,0.1,1.56109798E9,,,,0,,5,11.0,1.56109798E9
Raw,3193745,1000000000,18,0.0,-1295494075599910144,0.0,333.564095198152,-443.3738618663531,0.0,1,13,0.0,0,0,10,0.0,-0.0,0.1,16,0.0,0.1,1.56109798E9,,,,0,,5,11.0,1.56109798E9
Raw,3193745,1000000000,18,0.0,-1295494075599910144,0.0,333.564095198152,-443.3738618663531,0.0,1,16,0.0,0,0,10,0.0,-0.0,0.1,16,0.0,0.1,1.56109798E9,,,,0,,5,11.0,1.56109798E9
Raw,3193745,1000000000,18,0.0,-1295494075599910144,0.0,333.564095198152,-443.3738618663531,0.0,1,20,0.0,0,0,10,0.0,-0.0,0.1,16,0.0,0.1,1.56109798E9,,,,0,,5,11.0,1.56109798E9
Raw,3193745,1000000000,18,0.0,-1295494075599910144,0.0,333.564095198152,-443.3738618663531,0.0,1,23,0.0,0,0,10,0.0,-0.0,0.1,16,0.0,0.1,1.56109798E9,,,,0,,5,11.0,1.56109798E9
Raw,3193745,1000000000,18,0.0,-1295494075599910144,0.0,333.564095198152,-443.3738618663531,0.0,1,25,0.0,0,0,10,0.0,-0.0,0.1,16,0.0,0.1,1.56109798E9,,,,0,,5,11.0,1.56109798E9
Raw,3193746,1000000000,18,0.0,-1295494075599910144,0.0,333.564095198152,-443.3738618663531,0.0,1,32,0.0,0,0,10,0.0,-0.0,0.1,16,0.0,0.1,1.56109798E9,,,,0,,5,11.0,1.56109798E9
Raw,3193746,1000000000,18,0.0,-1295494075599910144,0.0,333.564095198152,-443.3738618663531,0.0,1,37,0.0,0,0,10,0.0,-0.0,0.1,16,0.0,0.1,1.56109798E9,,,,0,,5,11.0,1.56109798E9
Raw,3193746,1000000000,18,0.0,-1295494075599910144,0.0,333.564095198152,-443.3738618663531,0.0,1,2,0.0,0,0,10,0.0,-0.0,0.1,16,0.0,0.1,1.57542003E9,,,,0,,6,11.0,1.57542003E9
Raw,3193746,1000000000,18,0.0,-1295494075599910144,0.0,333.564095198152,-443.3738618663531,0.0,1,3,0.0,0,0,10,0.0,-0.0,0.1,16,0.0,0.1,1.57542003E9,,,,0,,6,11.0,1.57542003E9
Raw,3193746,1000000000,18,0.0,-1295494075599910144,0.0,333.564095198152,-443.3738618663531,0.0,1,7,0.0,0,0,10,0.0,-0.0,0.1,16,0.0,0.1,1.57542003E9,,,,0,,6,11.0,1.57542003E9
Raw,3193746,1000000000,18,0.0,-1295494075599910144,0.0,333.564095198152,-443.3738618663531,0.0,1,8,0.0,0,0,10,0.0,-0.0,0.1,16,0.0,0.1,1.57542003E9,,,,0,,6,11.0,1.57542003E9
Raw,3193746,1000000000,18,0.0,-1295494075599910144,0.0,333.564095198152,-443.3738618663531,0.0,1,25,0.0,0,0,10,0.0,-0.0,0.1,16,0.0,0.1,1.57542003E9,,,,0,,6,11.0,1.57542003E9
Raw,3193746,1000000000,18,0.0,-1295494075599910144,0.0,333.564095198152,-443.3738618663531,0.0,1,27,0.0,0,0,10,0.0,-0.0,0.1,16,0.0,0.1,1.57542003E9,,,,0,,6,11.0,1.57542003E9
Raw,3193746,1000000000,18,0.0,-1295494075599910144,0.0,333.564095198152,-443.3738618663531,0.0,1,30,0.0,0,0,10,0.0,-0.0,0.1,16,0.0,0.1,1.57542003E9,,,,0,,6,11.0,1.57542003E9
Raw,3193746,1000000000,18,0.0,-1295494075599910144,0.0,333.564095198152,-443.3738618663531,0.0,1,193,0.0,0,0,10,0.0,-0.0,0.1,16,0.0,0.1,1.57542003E9,,,,0,,4,11.0,1.57542003E9
Raw,3193746,1000000000,18,0.0,-1295494075599910144,0.0,333.564095198152,-443.3738618663531,0.0,1,194,0.0,0,0,10,0.0,-0.0,0.1,16,0.0,0.1,1.57542003E9,,,,0,,4,11.0,1.57542003E9
Raw,3193746,1000000000,18,0.0,-1295494075599910144,0.0,333.564095198152,-443.3738618663531,0.0,1,195,0.0,0,0,10,0.0,-0.0,0.1,16,0.0,0.1,1.57542003E9,,,,0,,4,11.0,1.57542003E9
Raw,3193746,1000000000,18,0.0,-1295494075599910144,0.0,333.564095198152,-443.3738618663531,0.0,1,1,0.0,0,0,10,0.0,-0.0,0.1,16,0.0,0.1,1.56109798E9,,,,0,,5,11.0,1.56109798E9
Raw,3193747,1000000000,18,0.0,-1295494075599910144,0.0,333.564095198152,-443.3738618663531,0.0,1,2,0.0,0,0,10,0.0,-0.0,0.1,16,0.0,0.1,1.56109798E9,,,,0,,5,11.0,1.56109798E9
Raw,3193747,1000000000,18,0.0,-1295494075599910144,0.0,333.564095198152,-443.3738618663531,0.0,1,3,0.0,0,0,10,0.0,-0.0,0.1,16,0.0,0.1,1.56109798E9,,,,0,,5,11.0,1.56109798E9
Raw,3193747,1000000000,18,0.0,-1295494075599910144,0.0,333.564095198152,-443.3738618663531,0.0,1,4,0.0,0,0,10,0.0,-0.0,0.1,16,0.0,0.1,1.56109798E9,,,,0,,5,11.0,1.56109798E9
Raw,3193747,1000000000,18,0.0,-1295494075599910144,0.0,333.564095198152,-443.3738618663531,0.0,1,5,0.0,0,0,10,0.0,-0.0,0.1,16,0.0,0.1,1.56109798E9,,,,0,,5,11.0,1.56109798E9
NMEA,$GNGSA,A,1,,,,,,,,,,,,,0.0,0.0,0.0*2E
,-62167219199997
NMEA,$GPGSA,A,1,,,,,,,,,,,,,0.0,0.0,0.0*30
,-62167219199997
NMEA,$GPGSA,A,1,,,,,,,,,,,,,0.0,0.0,0.0,8*24
,-62167219199997
NMEA,$GLGSA,A,1,,,,,,,,,,,,,0.0,0.0,0.0*2C
,-62167219199997
NMEA,$BDGSA,A,1,,,,,,,,,,,,,0.0,0.0,0.0*21
,-62167219199997
NMEA,$BDGSA,A,1,,,,,,,,,,,,,0.0,0.0,0.0,7*3A
,-62167219199997
NMEA,$GAGSA,A,1,,,,,,,,,,,,,0.0,0.0,0.0*21
,-62167219199997
NMEA,$GAGSA,A,1,,,,,,,,,,,,,0.0,0.0,0.0,1*3C
,-62167219199997
NMEA,$QZGSA,A,1,,,,,,,,,,,,,0.0,0.0,0.0*2C
,-62167219199997
NMEA,$PJGSA,A,1,,,,,,,,,,,,,0.0,0.0,0.0*3D
,-62167219199997
NMEA,$GPGSV,3,1,10,10,44,176,,12,14,039,,20,11,163,,22,15,316,*71
,-62167219199997
NMEA,$GPGSV,3,2,10,23,15,161,,25,52,060,,26,26,201,,29,09,118,*75
,-62167219199997
NMEA,$GPGSV,3,3,10,31,55,287,,32,66,030,*75
,-62167219199997
NMEA,$GLGSV,2,1,06,65,20,137,,66,76,063,,67,34,333,,76,52,018,*6A
,-62167219199997
NMEA,$GLGSV,2,2,06,77,62,247,,78,11,222,*6B
,-62167219199997
NMEA,$BDGSV,5,1,17,201,41,130,,202,41,229,,203,53,187,,204,28,117,*60
,-62167219199997
NMEA,$BDGSV,5,2,17,205,21,251,,206,64,021,,207,51,174,,208,05,191,*6B
,-62167219199997
NMEA,$BDGSV,5,3,17,209,54,328,,210,33,192,,213,17,214,,216,64,018,*6D
,-62167219199997
NMEA,$BDGSV,5,4,17,220,37,317,,223,54,033,,225,06,048,,232,82,182,*61
,-62167219199997
NMEA,$BDGSV,5,5,17,237,64,258,*65
,-62167219199997
NMEA,$QZGSV,1,1,03,193,56,134,,194,66,080,,195,11,147,*63
,-62167219199997
NMEA,$GAGSV,2,1,07,102,54,047,,103,26,116,,107,40,320,,108,72,063,*67
,-62167219199997
NMEA,$GAGSV,2,2,07,125,05,038,,127,14,212,,130,67,195,*69
,-62167219199997
NMEA,$GPRMC,032739.05,V,3030.729540,N,11424.438720,E,000.0,000.0,240121,,E,N*0B
,-62167219199997
NMEA,$GPGGA,032740.05,3030.729540,N,11424.438720,E,0,,0.0,0.0,M,,M,,*71
,-62167219199999
NMEA,$GNGSA,A,1,,,,,,,,,,,,,0.0,0.0,0.0*2E
,-62167219199999
NMEA,$GPGSA,A,1,,,,,,,,,,,,,0.0,0.0,0.0*30
,-62167219199999
NMEA,$GPGSA,A,1,,,,,,,,,,,,,0.0,0.0,0.0,8*24
,-62167219199999
Raw,3194739,2000000000,18,0.0,-1295494075599910144,0.0,333.564095198152,-443.3738618663531,0.0,2,10,0.0,0,0,10,0.0,-0.0,0.1,16,0.0,0.1,1.57542003E9,,,,0,,1,8.0,1.57542003E9
Raw,3194739,2000000000,18,0.0,-1295494075599910144,0.0,333.564095198152,-443.3738618663531,0.0,2,12,0.0,0,0,10,0.0,-0.0,0.1,16,0.0,0.1,1.57542003E9,,,,0,,1,8.0,1.57542003E9
Raw,3194739,2000000000,18,0.0,-1295494075599910144,0.0,333.564095198152,-443.3738618663531,0.0,2,20,0.0,0,0,10,0.0,-0.0,0.1,16,0.0,0.1,1.57542003E9,,,,0,,1,8.0,1.57542003E9
Raw,3194739,2000000000,18,0.0,-1295494075599910144,0.0,333.564095198152,-443.3738618663531,0.0,2,22,0.0,0,0,10,0.0,-0.0,0.1,16,0.0,0.1,1.57542003E9,,,,0,,1,8.0,1.57542003E9
Raw,3194739,2000000000,18,0.0,-1295494075599910144,0.0,333.564095198152,-443.3738618663531,0.0,2,23,0.0,0,0,10,0.0,-0.0,0.1,16,0.0,0.1,1.57542003E9,,,,0,,1,8.0,1.57542003E9
Raw,3194739,2000000000,18,0.0,-1295494075599910144,0.0,333.564095198152,-443.3738618663531,0.0,2,25,0.0,0,0,10,0.0,-0.0,0.1,16,0.0,0.1,1.57542003E9,,,,0,,1,8.0,1.57542003E9
Raw,3194739,2000000000,18,0.0,-1295494075599910144,0.0,333.564095198152,-443.3738618663531,0.0,2,26,0.0,0,0,10,0.0,-0.0,0.1,16,0.0,0.1,1.57542003E9,,,,0,,1,8.0,1.57542003E9
Raw,3194739,2000000000,18,0.0,-1295494075599910144,0.0,333.564095198152,-443.3738618663531,0.0,2,29,0.0,0,0,10,0.0,-0.0,0.1,16,0.0,0.1,1.57542003E9,,,,0,,1,8.0,1.57542003E9
Raw,3194739,2000000000,18,0.0,-1295494075599910144,0.0,333.564095198152,-443.3738618663531,0.0,2,32,0.0,0,0,10,0.0,-0.0,0.1,16,0.0,0.1,1.57542003E9,,,,0,,1,8.0,1.57542003E9
Raw,3194740,2000000000,18,0.0,-1295494075599910144,0.0,333.564095198152,-443.3738618663531,0.0,2,1,0.0,0,0,10,0.0,-0.0,0.1,16,0.0,0.1,1.60256256E9,,,,0,,3,8.0,1.60256256E9
Raw,3194740,2000000000,18,0.0,-1295494075599910144,0.0,333.564095198152,-443.3738618663531,0.0,2,2,0.0,0,0,10,0.0,-0.0,0.1,16,0.0,0.1,1.59975002E9,,,,0,,3,8.0,1.59975002E9
Raw,3194740,2000000000,18,0.0,-1295494075599910144,0.0,333.564095198152,-443.3738618663531,0.0,2,3,0.0,0,0,10,0.0,-0.0,0.1,16,0.0,0.1,1.60481254E9,,,,0,,3,8.0,1.60481254E9
Raw,3194740,2000000000,18,0.0,-1295494075599910144,0.0,333.564095198152,-443.3738618663531,0.0,2,12,0.0,0,0,10,0.0,-0.0,0.1,16,0.0,0.1,1.60143744E9,,,,0,,3,8.0,1.60143744E9
Raw,3194740,2000000000,18,0.0,-1295494075599910144,0.0,333.564095198152,-443.3738618663531,0.0,2,13,0.0,0,0,10,0.0,-0.0,0.1,16,0.0,0.1,1.60087501E9,,,,0,,3,8.0,1.60087501E9
Raw,3194740,2000000000,18,0.0,-1295494075599910144,0.0,333.564095198152,-443.3738618663531,0.0,2,14,0.0,0,0,10,0.0,-0.0,0.1,16,0.0,0.1,1.59806246E9,,,,0,,3,8.0,1.59806246E9
Raw,3194740,2000000000,18,0.0,-1295494075599910144,0.0,333.564095198152,-443.3738618663531,0.0,2,6,0.0,0,0,10,0.0,-0.0,0.1,16,0.0,0.1,1.56109798E9,,,,0,,5,8.0,1.56109798E9
Raw,3194740,2000000000,18,0.0,-1295494075599910144,0.0,333.564095198152,-443.3738618663531,0.0,2,7,0.0,0,0,10,0.0,-0.0,0.1,16,0.0,0.1,1.56109798E9,,,,0,,5,8.0,1.56109798E9
Raw,3194740,2000000000,18,0.0,-1295494075599910144,0.0,333.564095198152,-443.3738618663531,0.0,2,8,0.0,0,0,10,0.0,-0.0,0.1,16,0.0,0.1,1.56109798E9,,,,0,,5,8.0,1.56109798E9
Raw,3194740,2000000000,18,0.0,-1295494075599910144,0.0,333.564095198152,-443.3738618663531,0.0,2,9,0.0,0,0,10,0.0,-0.0,0.1,16,0.0,0.1,1.56109798E9,,,,0,,5,8.0,1.56109798E9
Raw,3194740,2000000000,18,0.0,-1295494075599910144,0.0,333.564095198152,-443.3738618663531,0.0,2,10,0.0,0,0,10,0.0,-0.0,0.1,16,0.0,0.1,1.56109798E9,,,,0,,5,8.0,1.56109798E9
Raw,3194740,2000000000,18,0.0,-1295494075599910144,0.0,333.564095198152,-443.3738618663531,0.0,2,13,0.0,0,0,10,0.0,-0.0,0.1,16,0.0,0.1,1.56109798E9,,,,0,,5,8.0,1.56109798E9
Raw,3194740,2000000000,18,0.0,-1295494075599910144,0.0,333.564095198152,-443.3738618663531,0.0,2,16,0.0,0,0,10,0.0,-0.0,0.1,16,0.0,0.1,1.56109798E9,,,,0,,5,8.0,1.56109798E9
Raw,3194740,2000000000,18,0.0,-1295494075599910144,0.0,333.564095198152,-443.3738618663531,0.0,2,20,0.0,0,0,10,0.0,-0.0,0.1,16,0.0,0.1,1.56109798E9,,,,0,,5,8.0,1.56109798E9
Raw,3194740,2000000000,18,0.0,-1295494075599910144,0.0,333.564095198152,-443.3738618663531,0.0,2,23,0.0,0,0,10,0.0,-0.0,0.1,16,0.0,0.1,1.56109798E9,,,,0,,5,8.0,1.56109798E9
Raw,3194741,2000000000,18,0.0,-1295494075599910144,0.0,333.564095198152,-443.3738618663531,0.0,2,25,0.0,0,0,10,0.0,-0.0,0.1,16,0.0,0.1,1.56109798E9,,,,0,,5,8.0,1.56109798E9
Raw,3194741,2000000000,18,0.0,-1295494075599910144,0.0,333.564095198152,-443.3738618663531,0.0,2,32,0.0,0,0,10,0.0,-0.0,0.1,16,0.0,0.1,1.56109798E9,,,,0,,5,8.0,1.56109798E9
Raw,3194741,2000000000,18,0.0,-1295494075599910144,0.0,333.564095198152,-443.3738618663531,0.0,2,37,0.0,0,0,10,0.0,-0.0,0.1,16,0.0,0.1,1.56109798E9,,,,0,,5,8.0,1.56109798E9
Raw,3194741,2000000000,18,0.0,-1295494075599910144,0.0,333.564095198152,-443.3738618663531,0.0,2,2,0.0,0,0,10,0.0,-0.0,0.1,16,0.0,0.1,1.57542003E9,,,,0,,6,8.0,1.57542003E9
Raw,3194741,2000000000,18,0.0,-1295494075599910144,0.0,333.564095198152,-443.3738618663531,0.0,2,3,0.0,0,0,10,0.0,-0.0,0.1,16,0.0,0.1,1.57542003E9,,,,0,,6,8.0,1.57542003E9
Raw,3194741,2000000000,18,0.0,-1295494075599910144,0.0,333.564095198152,-443.3738618663531,0.0,2,7,0.0,0,0,10,0.0,-0.0,0.1,16,0.0,0.1,1.57542003E9,,,,0,,6,8.0,1.57542003E9
Raw,3194741,2000000000,18,0.0,-1295494075599910144,0.0,333.564095198152,-443.3738618663531,0.0,2,8,0.0,0,0,10,0.0,-0.0,0.1,16,0.0,0.1,1.57542003E9,,,,0,,6,8.0,1.57542003E9
Raw,3194741,2000000000,18,0.0,-1295494075599910144,0.0,333.564095198152,-443.3738618663531,0.0,2,25,0.0,0,0,10,0.0,-0.0,0.1,16,0.0,0.1,1.57542003E9,,,,0,,6,8.0,1.57542003E9
Raw,3194741,2000000000,18,0.0,-1295494075599910144,0.0,333.564095198152,-443.3738618663531,0.0,2,27,0.0,0,0,10,0.0,-0.0,0.1,16,0.0,0.1,1.57542003E9,,,,0,,6,8.0,1.57542003E9
Raw,3194741,2000000000,18,0.0,-1295494075599910144,0.0,333.564095198152,-443.3738618663531,0.0,2,30,0.0,0,0,10,0.0,-0.0,0.1,16,0.0,0.1,1.57542003E9,,,,0,,6,8.0,1.57542003E9
Raw,3194741,2000000000,18,0.0,-1295494075599910144,0.0,333.564095198152,-443.3738618663531,0.0,2,193,0.0,0,0,10,0.0,-0.0,0.1,16,0.0,0.1,1.57542003E9,,,,0,,4,8.0,1.57542003E9
Raw,3194742,2000000000,18,0.0,-1295494075599910144,0.0,333.564095198152,-443.3738618663531,0.0,2,194,0.0,0,0,10,0.0,-0.0,0.1,16,0.0,0.1,1.57542003E9,,,,0,,4,8.0,1.57542003E9
Raw,3194742,2000000000,18,0.0,-1295494075599910144,0.0,333.564095198152,-443.3738618663531,0.0,2,195,0.0,0,0,10,0.0,-0.0,0.1,16,0.0,0.1,1.57542003E9,,,,0,,4,8.0,1.57542003E9
Raw,3194742,2000000000,18,0.0,-1295494075599910144,0.0,333.564095198152,-443.3738618663531,0.0,2,1,0.0,0,0,10,0.0,-0.0,0.1,16,0.0,0.1,1.56109798E9,,,,0,,5,8.0,1.56109798E9
Raw,3194742,2000000000,18,0.0,-1295494075599910144,0.0,333.564095198152,-443.3738618663531,0.0,2,2,0.0,0,0,10,0.0,-0.0,0.1,16,0.0,0.1,1.56109798E9,,,,0,,5,8.0,1.56109798E9
Raw,3194742,2000000000,18,0.0,-1295494075599910144,0.0,333.564095198152,-443.3738618663531,0.0,2,3,0.0,0,0,10,0.0,-0.0,0.1,16,0.0,0.1,1.56109798E9,,,,0,,5,8.0,1.56109798E9
Raw,3194742,2000000000,18,0.0,-1295494075599910144,0.0,333.564095198152,-443.3738618663531,0.0,2,4,0.0,0,0,10,0.0,-0.0,0.1,16,0.0,0.1,1.56109798E9,,,,0,,5,8.0,1.56109798E9
Raw,3194742,2000000000,18,0.0,-1295494075599910144,0.0,333.564095198152,-443.3738618663531,0.0,2,5,0.0,0,0,10,0.0,-0.0,0.1,16,0.0,0.1,1.56109798E9,,,,0,,5,8.0,1.56109798E9
Raw,3194742,2000000000,18,0.0,-1295494075599910144,0.0,333.564095198152,-443.3738618663531,0.0,2,31,0.0,3,9751798,10,26.0,-182.97760361039434,0.1,18,0.05740319277686492,0.1,1.57542003E9,,,,0,,1,8.0,1.57542003E9
NMEA,$GLGSA,A,1,,,,,,,,,,,,,0.0,0.0,0.0*2C
,-62167219199999
NMEA,$BDGSA,A,1,,,,,,,,,,,,,0.0,0.0,0.0*21
,-62167219199999
NMEA,$BDGSA,A,1,,,,,,,,,,,,,0.0,0.0,0.0,7*3A
,-62167219199999
NMEA,$GAGSA,A,1,,,,,,,,,,,,,0.0,0.0,0.0*21
,-62167219199999
NMEA,$GAGSA,A,1,,,,,,,,,,,,,0.0,0.0,0.0,1*3C
,-62167219199999
NMEA,$QZGSA,A,1,,,,,,,,,,,,,0.0,0.0,0.0*2C
,-62167219199999
NMEA,$PJGSA,A,1,,,,,,,,,,,,,0.0,0.0,0.0*3D
,-62167219199999
NMEA,$GPGSV,3,1,10,10,44,176,,12,14,039,,20,11,163,,22,15,316,*71
,-62167219199999
NMEA,$GPGSV,3,2,10,23,15,161,,25,52,060,,26,26,201,,29,09,118,*75
,-62167219199999
NMEA,$GPGSV,3,3,10,31,55,287,26,32,66,030,*71
,-62167219199999
NMEA,$GLGSV,2,1,06,65,20,137,,66,76,063,,67,34,333,,76,52,018,*6A
,-62167219199999
NMEA,$GLGSV,2,2,06,77,62,247,,78,11,222,*6B
,-62167219199999
NMEA,$BDGSV,5,1,17,201,41,130,,202,41,229,,203,53,187,,204,28,117,*60
,-62167219199999
NMEA,$BDGSV,5,2,17,205,21,251,,206,64,021,,207,51,174,,208,05,191,*6B
,-62167219199999
NMEA,$BDGSV,5,3,17,209,54,328,,210,33,192,,213,17,214,,216,64,018,*6D
,-62167219199999
NMEA,$BDGSV,5,4,17,220,37,317,,223,54,033,,225,06,048,,232,82,182,*61
,-62167219199999
NMEA,$BDGSV,5,5,17,237,64,258,*65
,-62167219199999
NMEA,$QZGSV,1,1,03,193,56,134,,194,66,080,,195,11,147,*63
,-62167219199999
NMEA,$GAGSV,2,1,07,102,54,047,,103,26,116,,107,40,320,,108,72,063,*67
,-62167219199999
NMEA,$GAGSV,2,2,07,125,05,038,,127,14,212,,130,67,195,*69
,-62167219199999
NMEA,$GPRMC,032740.05,V,3030.729540,N,11424.438720,E,000.0,000.0,240121,,E,N*05
,-62167219199999
NMEA,$GPGGA,032741.05,3030.729540,N,11424.438720,E,0,,0.0,0.0,M,,M,,*70
,-62167219199998
Raw,3195745,3000000000,18,0.0,-1295494075599910144,0.0,333.564095198152,-443.3738618663531,0.0,3,10,0.0,0,0,10,0.0,-0.0,0.1,16,0.0,0.1,1.57542003E9,,,,0,,1,4.0,1.57542003E9
Raw,3195745,3000000000,18,0.0,-1295494075599910144,0.0,333.564095198152,-443.3738618663531,0.0,3,12,0.0,0,0,10,0.0,-0.0,0.1,16,0.0,0.1,1.57542003E9,,,,0,,1,4.0,1.57542003E9
Raw,3195745,3000000000,18,0.0,-1295494075599910144,0.0,333.564095198152,-443.3738618663531,0.0,3,20,0.0,0,0,10,0.0,-0.0,0.1,16,0.0,0.1,1.57542003E9,,,,0,,1,4.0,1.57542003E9
Raw,3195745,3000000000,18,0.0,-1295494075599910144,0.0,333.564095198152,-443.3738618663531,0.0,3,22,0.0,0,0,10,0.0,-0.0,0.1,16,0.0,0.1,1.57542003E9,,,,0,,1,4.0,1.57542003E9
Raw,3195745,3000000000,18,0.0,-1295494075599910144,0.0,333.564095198152,-443.3738618663531,0.0,3,23,0.0,0,0,10,0.0,-0.0,0.1,16,0.0,0.1,1.57542003E9,,,,0,,1,4.0,1.57542003E9
Raw,3195745,3000000000,18,0.0,-1295494075599910144,0.0,333.564095198152,-443.3738618663531,0.0,3,25,0.0,0,0,10,0.0,-0.0,0.1,16,0.0,0.1,1.57542003E9,,,,0,,1,4.0,1.57542003E9
Raw,3195745,3000000000,18,0.0,-1295494075599910144,0.0,333.564095198152,-443.3738618663531,0.0,3,26,0.0,0,0,10,0.0,-0.0,0.1,16,0.0,0.1,1.57542003E9,,,,0,,1,4.0,1.57542003E9
Raw,3195745,3000000000,18,0.0,-1295494075599910144,0.0,333.564095198152,-443.3738618663531,0.0,3,29,0.0,0,0,10,0.0,-0.0,0.1,16,0.0,0.1,1.57542003E9,,,,0,,1,4.0,1.57542003E9
Raw,3195745,3000000000,18,0.0,-1295494075599910144,0.0,333.564095198152,-443.3738618663531,0.0,3,32,0.0,0,0,10,0.0,-0.0,0.1,16,0.0,0.1,1.57542003E9,,,,0,,1,4.0,1.57542003E9
Raw,3195745,3000000000,18,0.0,-1295494075599910144,0.0,333.564095198152,-443.3738618663531,0.0,3,1,0.0,0,0,10,0.0,-0.0,0.1,16,0.0,0.1,1.60256256E9,,,,0,,3,4.0,1.60256256E9
Raw,3195745,3000000000,18,0.0,-1295494075599910144,0.0,333.564095198152,-443.3738618663531,0.0,3,2,0.0,0,0,10,0.0,-0.0,0.1,16,0.0,0.1,1.59975002E9,,,,0,,3,4.0,1.59975002E9
Raw,3195746,3000000000,18,0.0,-1295494075599910144,0.0,333.564095198152,-443.3738618663531,0.0,3,3,0.0,0,0,10,0.0,-0.0,0.1,16,0.0,0.1,1.60481254E9,,,,0,,3,4.0,1.60481254E9
Raw,3195746,3000000000,18,0.0,-1295494075599910144,0.0,333.564095198152,-443.3738618663531,0.0,3,12,0.0,0,0,10,0.0,-0.0,0.1,16,0.0,0.1,1.60143744E9,,,,0,,3,4.0,1.60143744E9
Raw,3195746,3000000000,18,0.0,-1295494075599910144,0.0,333.564095198152,-443.3738618663531,0.0,3,13,0.0,0,0,10,0.0,-0.0,0.1,16,0.0,0.1,1.60087501E9,,,,0,,3,4.0,1.60087501E9
Raw,3195746,3000000000,18,0.0,-1295494075599910144,0.0,333.564095198152,-443.3738618663531,0.0,3,14,0.0,0,0,10,0.0,-0.0,0.1,16,0.0,0.1,1.59806246E9,,,,0,,3,4.0,1.59806246E9
Raw,3195746,3000000000,18,0.0,-1295494075599910144,0.0,333.564095198152,-443.3738618663531,0.0,3,6,0.0,0,0,10,0.0,-0.0,0.1,16,0.0,0.1,1.56109798E9,,,,0,,5,4.0,1.56109798E9
Raw,3195746,3000000000,18,0.0,-1295494075599910144,0.0,333.564095198152,-443.3738618663531,0.0,3,7,0.0,0,0,10,0.0,-0.0,0.1,16,0.0,0.1,1.56109798E9,,,,0,,5,4.0,1.56109798E9
Raw,3195746,3000000000,18,0.0,-1295494075599910144,0.0,333.564095198152,-443.3738618663531,0.0,3,8,0.0,0,0,10,0.0,-0.0,0.1,16,0.0,0.1,1.56109798E9,,,,0,,5,4.0,1.56109798E9
Raw,3195746,3000000000,18,0.0,-1295494075599910144,0.0,333.564095198152,-443.3738618663531,0.0,3,9,0.0,0,0,10,0.0,-0.0,0.1,16,0.0,0.1,1.56109798E9,,,,0,,5,4.0,1.56109798E9
Raw,3195746,3000000000,18,0.0,-1295494075599910144,0.0,333.564095198152,-443.3738618663531,0.0,3,10,0.0,0,0,10,0.0,-0.0,0.1,16,0.0,0.1,1.56109798E9,,,,0,,5,4.0,1.56109798E9
Raw,3195746,3000000000,18,0.0,-1295494075599910144,0.0,333.564095198152,-443.3738618663531,0.0,3,13,0.0,0,0,10,0.0,-0.0,0.1,16,0.0,0.1,1.56109798E9,,,,0,,5,4.0,1.56109798E9
Raw,3195746,3000000000,18,0.0,-1295494075599910144,0.0,333.564095198152,-443.3738618663531,0.0,3,16,0.0,0,0,10,0.0,-0.0,0.1,16,0.0,0.1,1.56109798E9,,,,0,,5,4.0,1.56109798E9
Raw,3195746,3000000000,18,0.0,-1295494075599910144,0.0,333.564095198152,-443.3738618663531,0.0,3,20,0.0,0,0,10,0.0,-0.0,0.1,16,0.0,0.1,1.56109798E9,,,,0,,5,4.0,1.56109798E9
Raw,3195746,3000000000,18,0.0,-1295494075599910144,0.0,333.564095198152,-443.3738618663531,0.0,3,23,0.0,0,0,10,0.0,-0.0,0.1,16,0.0,0.1,1.56109798E9,,,,0,,5,4.0,1.56109798E9
Raw,3195746,3000000000,18,0.0,-1295494075599910144,0.0,333.564095198152,-443.3738618663531,0.0,3,25,0.0,0,0,10,0.0,-0.0,0.1,16,0.0,0.1,1.56109798E9,,,,0,,5,4.0,1.56109798E9
Raw,3195746,3000000000,18,0.0,-1295494075599910144,0.0,333.564095198152,-443.3738618663531,0.0,3,32,0.0,0,0,10,0.0,-0.0,0.1,16,0.0,0.1,1.56109798E9,,,,0,,5,4.0,1.56109798E9
Raw,3195747,3000000000,18,0.0,-1295494075599910144,0.0,333.564095198152,-443.3738618663531,0.0,3,37,0.0,0,0,10,0.0,-0.0,0.1,16,0.0,0.1,1.56109798E9,,,,0,,5,4.0,1.56109798E9
Raw,3195747,3000000000,18,0.0,-1295494075599910144,0.0,333.564095198152,-443.3738618663531,0.0,3,2,0.0,0,0,10,0.0,-0.0,0.1,16,0.0,0.1,1.57542003E9,,,,0,,6,4.0,1.57542003E9
Raw,3195747,3000000000,18,0.0,-1295494075599910144,0.0,333.564095198152,-443.3738618663531,0.0,3,3,0.0,0,0,10,0.0,-0.0,0.1,16,0.0,0.1,1.57542003E9,,,,0,,6,4.0,1.57542003E9
Raw,3195747,3000000000,18,0.0,-1295494075599910144,0.0,333.564095198152,-443.3738618663531,0.0,3,7,0.0,0,0,10,0.0,-0.0,0.1,16,0.0,0.1,1.57542003E9,,,,0,,6,4.0,1.57542003E9
Raw,3195747,3000000000,18,0.0,-1295494075599910144,0.0,333.564095198152,-443.3738618663531,0.0,3,8,0.0,0,0,10,0.0,-0.0,0.1,16,0.0,0.1,1.57542003E9,,,,0,,6,4.0,1.57542003E9
Raw,3195747,3000000000,18,0.0,-1295494075599910144,0.0,333.564095198152,-443.3738618663531,0.0,3,25,0.0,0,0,10,0.0,-0.0,0.1,16,0.0,0.1,1.57542003E9,,,,0,,6,4.0,1.57542003E9
Raw,3195747,3000000000,18,0.0,-1295494075599910144,0.0,333.564095198152,-443.3738618663531,0.0,3,27,0.0,0,0,10,0.0,-0.0,0.1,16,0.0,0.1,1.57542003E9,,,,0,,6,4.0,1.57542003E9
Raw,3195747,3000000000,18,0.0,-1295494075599910144,0.0,333.564095198152,-443.3738618663531,0.0,3,30,0.0,0,0,10,0.0,-0.0,0.1,16,0.0,0.1,1.57542003E9,,,,0,,6,4.0,1.57542003E9
Raw,3195747,3000000000,18,0.0,-1295494075599910144,0.0,333.564095198152,-443.3738618663531,0.0,3,193,0.0,0,0,10,0.0,-0.0,0.1,16,0.0,0.1,1.57542003E9,,,,0,,4,4.0,1.57542003E9
Raw,3195747,3000000000,18,0.0,-1295494075599910144,0.0,333.564095198152,-443.3738618663531,0.0,3,194,0.0,0,0,10,0.0,-0.0,0.1,16,0.0,0.1,1.57542003E9,,,,0,,4,4.0,1.57542003E9
Raw,3195748,3000000000,18,0.0,-1295494075599910144,0.0,333.564095198152,-443.3738618663531,0.0,3,195,0.0,0,0,10,0.0,-0.0,0.1,16,0.0,0.1,1.57542003E9,,,,0,,4,4.0,1.57542003E9
Raw,3195748,3000000000,18,0.0,-1295494075599910144,0.0,333.564095198152,-443.3738618663531,0.0,3,1,0.0,0,0,10,0.0,-0.0,0.1,16,0.0,0.1,1.56109798E9,,,,0,,5,4.0,1.56109798E9
Raw,3195748,3000000000,18,0.0,-1295494075599910144,0.0,333.564095198152,-443.3738618663531,0.0,3,2,0.0,0,0,10,0.0,-0.0,0.1,16,0.0,0.1,1.56109798E9,,,,0,,5,4.0,1.56109798E9
Raw,3195748,3000000000,18,0.0,-1295494075599910144,0.0,333.564095198152,-443.3738618663531,0.0,3,3,0.0,0,0,10,0.0,-0.0,0.1,16,0.0,0.1,1.56109798E9,,,,0,,5,4.0,1.56109798E9
Raw,3195748,3000000000,18,0.0,-1295494075599910144,0.0,333.564095198152,-443.3738618663531,0.0,3,4,0.0,0,0,10,0.0,-0.0,0.1,16,0.0,0.1,1.56109798E9,,,,0,,5,4.0,1.56109798E9
Raw,3195748,3000000000,18,0.0,-1295494075599910144,0.0,333.564095198152,-443.3738618663531,0.0,3,5,0.0,0,0,10,0.0,-0.0,0.1,16,0.0,0.1,1.56109798E9,,,,0,,5,4.0,1.56109798E9
Raw,3195748,3000000000,18,0.0,-1295494075599910144,0.0,333.564095198152,-443.3738618663531,0.0,3,31,0.0,3,9751235,10,23.0,-182.03026714179424,0.1,20,-345.99936123046604,0.1,1.57542003E9,,,,2,,1,4.0,1.57542003E9
NMEA,$GNGSA,A,1,,,,,,,,,,,,,0.0,0.0,0.0*2E
,-62167219199998
NMEA,$GPGSA,A,1,,,,,,,,,,,,,0.0,0.0,0.0*30
,-62167219199998
NMEA,$GPGSA,A,1,,,,,,,,,,,,,0.0,0.0,0.0,8*24
,-62167219199998
NMEA,$GLGSA,A,1,,,,,,,,,,,,,0.0,0.0,0.0*2C
,-62167219199998
NMEA,$BDGSA,A,1,,,,,,,,,,,,,0.0,0.0,0.0*21
,-62167219199998
NMEA,$BDGSA,A,1,,,,,,,,,,,,,0.0,0.0,0.0,7*3A
,-62167219199998
NMEA,$GAGSA,A,1,,,,,,,,,,,,,0.0,0.0,0.0*21
,-62167219199998
NMEA,$GAGSA,A,1,,,,,,,,,,,,,0.0,0.0,0.0,1*3C
,-62167219199998
NMEA,$QZGSA,A,1,,,,,,,,,,,,,0.0,0.0,0.0*2C
,-62167219199998
NMEA,$PJGSA,A,1,,,,,,,,,,,,,0.0,0.0,0.0*3D
,-62167219199998
NMEA,$GPGSV,3,1,10,10,44,176,,12,14,039,,20,11,163,,22,15,316,*71
,-62167219199998
NMEA,$GPGSV,3,2,10,23,15,161,,25,52,060,,26,26,201,,29,09,118,*75
,-62167219199998
NMEA,$GPGSV,3,3,10,31,55,287,23,32,66,030,*74
,-62167219199998
NMEA,$GLGSV,2,1,06,65,20,137,,66,76,063,,67,34,333,,76,52,018,*6A
,-62167219199998
NMEA,$GLGSV,2,2,06,77,62,247,,78,11,222,*6B
,-62167219199998
NMEA,$BDGSV,5,1,17,201,41,130,,202,41,229,,203,53,187,,204,28,117,*60
,-62167219199998
NMEA,$BDGSV,5,2,17,205,21,251,,206,64,021,,207,51,174,,208,05,191,*6B
,-62167219199998
NMEA,$BDGSV,5,3,17,209,54,328,,210,33,192,,213,17,214,,216,64,018,*6D
,-62167219199998
NMEA,$BDGSV,5,4,17,220,37,317,,223,54,033,,225,06,048,,232,82,182,*61
,-62167219199998
NMEA,$BDGSV,5,5,17,237,64,258,*65
,-62167219199998
NMEA,$QZGSV,1,1,03,193,56,134,,194,66,080,,195,11,147,*63
,-62167219199998
NMEA,$GAGSV,2,1,07,102,54,047,,103,26,116,,107,40,320,,108,72,063,*67
,-62167219199998
NMEA,$GAGSV,2,2,07,125,05,038,,127,14,212,,130,67,195,*69
,-62167219199998
NMEA,$GPRMC,032741.05,V,3030.729540,N,11424.438720,E,000.0,000.0,240121,,E,N*04
,-62167219199998
NMEA,$GPGGA,032742.05,3030.729540,N,11424.438720,E,0,,0.0,0.0,M,,M,,*73
,-62167219199999
Raw,3196734,4000000000,18,0.0,-1295494075599910144,0.0,333.564095198152,-443.3738618663531,0.0,4,10,0.0,0,0,10,0.0,-0.0,0.1,16,0.0,0.1,1.57542003E9,,,,0,,1,5.0,1.57542003E9
Raw,3196735,4000000000,18,0.0,-1295494075599910144,0.0,333.564095198152,-443.3738618663531,0.0,4,12,0.0,0,0,10,0.0,-0.0,0.1,16,0.0,0.1,1.57542003E9,,,,0,,1,5.0,1.57542003E9
Raw,3196735,4000000000,18,0.0,-1295494075599910144,0.0,333.564095198152,-443.3738618663531,0.0,4,20,0.0,0,0,10,0.0,-0.0,0.1,16,0.0,0.1,1.57542003E9,,,,0,,1,5.0,1.57542003E9
Raw,3196735,4000000000,18,0.0,-1295494075599910144,0.0,333.564095198152,-443.3738618663531,0.0,4,22,0.0,0,0,10,0.0,-0.0,0.1,16,0.0,0.1,1.57542003E9,,,,0,,1,5.0,1.57542003E9
Raw,3196735,4000000000,18,0.0,-1295494075599910144,0.0,333.564095198152,-443.3738618663531,0.0,4,23,0.0,0,0,10,0.0,-0.0,0.1,16,0.0,0.1,1.57542003E9,,,,0,,1,5.0,1.57542003E9
Raw,3196735,4000000000,18,0.0,-1295494075599910144,0.0,333.564095198152,-443.3738618663531,0.0,4,25,0.0,0,0,10,0.0,-0.0,0.1,16,0.0,0.1,1.57542003E9,,,,0,,1,5.0,1.57542003E9
Raw,3196735,4000000000,18,0.0,-1295494075599910144,0.0,333.564095198152,-443.3738618663531,0.0,4,26,0.0,0,0,10,0.0,-0.0,0.1,16,0.0,0.1,1.57542003E9,,,,0,,1,5.0,1.57542003E9
Raw,3196735,4000000000,18,0.0,-1295494075599910144,0.0,333.564095198152,-443.3738618663531,0.0,4,29,0.0,0,0,10,0.0,-0.0,0.1,16,0.0,0.1,1.57542003E9,,,,0,,1,5.0,1.57542003E9
Raw,3196735,4000000000,18,0.0,-1295494075599910144,0.0,333.564095198152,-443.3738618663531,0.0,4,32,0.0,0,0,10,0.0,-0.0,0.1,16,0.0,0.1,1.57542003E9,,,,0,,1,5.0,1.57542003E9
Raw,3196735,4000000000,18,0.0,-1295494075599910144,0.0,333.564095198152,-443.3738618663531,0.0,4,1,0.0,0,0,10,0.0,-0.0,0.1,16,0.0,0.1,1.60256256E9,,,,0,,3,5.0,1.60256256E9
Raw,3196735,4000000000,18,0.0,-1295494075599910144,0.0,333.564095198152,-443.3738618663531,0.0,4,2,0.0,0,0,10,0.0,-0.0,0.1,16,0.0,0.1,1.59975002E9,,,,0,,3,5.0,1.59975002E9
Raw,3196735,4000000000,18,0.0,-1295494075599910144,0.0,333.564095198152,-443.3738618663531,0.0,4,3,0.0,0,0,10,0.0,-0.0,0.1,16,0.0,0.1,1.60481254E9,,,,0,,3,5.0,1.60481254E9
Raw,3196735,4000000000,18,0.0,-1295494075599910144,0.0,333.564095198152,-443.3738618663531,0.0,4,12,0.0,0,0,10,0.0,-0.0,0.1,16,0.0,0.1,1.60143744E9,,,,0,,3,5.0,1.60143744E9
Raw,3196736,4000000000,18,0.0,-1295494075599910144,0.0,333.564095198152,-443.3738618663531,0.0,4,13,0.0,0,0,10,0.0,-0.0,0.1,16,0.0,0.1,1.60087501E9,,,,0,,3,5.0,1.60087501E9
Raw,3196736,4000000000,18,0.0,-1295494075599910144,0.0,333.564095198152,-443.3738618663531,0.0,4,14,0.0,0,0,10,0.0,-0.0,0.1,16,0.0,0.1,1.59806246E9,,,,0,,3,5.0,1.59806246E9
Raw,3196736,4000000000,18,0.0,-1295494075599910144,0.0,333.564095198152,-443.3738618663531,0.0,4,6,0.0,0,0,10,0.0,-0.0,0.1,16,0.0,0.1,1.56109798E9,,,,0,,5,5.0,1.56109798E9
Raw,3196736,4000000000,18,0.0,-1295494075599910144,0.0,333.564095198152,-443.3738618663531,0.0,4,7,0.0,0,0,10,0.0,-0.0,0.1,16,0.0,0.1,1.56109798E9,,,,0,,5,5.0,1.56109798E9
Raw,3196736,4000000000,18,0.0,-1295494075599910144,0.0,333.564095198152,-443.3738618663531,0.0,4,8,0.0,0,0,10,0.0,-0.0,0.1,16,0.0,0.1,1.56109798E9,,,,0,,5,5.0,1.56109798E9
Raw,3196736,4000000000,18,0.0,-1295494075599910144,0.0,333.564095198152,-443.3738618663531,0.0,4,9,0.0,0,0,10,0.0,-0.0,0.1,16,0.0,0.1,1.56109798E9,,,,0,,5,5.0,1.56109798E9
Raw,3196736,4000000000,18,0.0,-1295494075599910144,0.0,333.564095198152,-443.3738618663531,0.0,4,10,0.0,0,0,10,0.0,-0.0,0.1,16,0.0,0.1,1.56109798E9,,,,0,,5,5.0,1.56109798E9
Raw,3196736,4000000000,18,0.0,-1295494075599910144,0.0,333.564095198152,-443.3738618663531,0.0,4,13,0.0,0,0,10,0.0,-0.0,0.1,16,0.0,0.1,1.56109798E9,,,,0,,5,5.0,1.56109798E9
Raw,3196736,4000000000,18,0.0,-1295494075599910144,0.0,333.564095198152,-443.3738618663531,0.0,4,16,0.0,0,0,10,0.0,-0.0,0.1,16,0.0,0.1,1.56109798E9,,,,0,,5,5.0,1.56109798E9
Raw,3196736,4000000000,18,0.0,-1295494075599910144,0.0,333.564095198152,-443.3738618663531,0.0,4,20,0.0,0,0,10,0.0,-0.0,0.1,16,0.0,0.1,1.56109798E9,,,,0,,5,5.0,1.56109798E9
Raw,3196736,4000000000,18,0.0,-1295494075599910144,0.0,333.564095198152,-443.3738618663531,0.0,4,23,0.0,0,0,10,0.0,-0.0,0.1,16,0.0,0.1,1.56109798E9,,,,0,,5,5.0,1.56109798E9
Raw,3196737,4000000000,18,0.0,-1295494075599910144,0.0,333.564095198152,-443.3738618663531,0.0,4,25,0.0,0,0,10,0.0,-0.0,0.1,16,0.0,0.1,1.56109798E9,,,,0,,5,5.0,1.56109798E9
Raw,3196737,4000000000,18,0.0,-1295494075599910144,0.0,333.564095198152,-443.3738618663531,0.0,4,32,0.0,0,0,10,0.0,-0.0,0.1,16,0.0,0.1,1.56109798E9,,,,0,,5,5.0,1.56109798E9
Raw,3196737,4000000000,18,0.0,-1295494075599910144,0.0,333.564095198152,-443.3738618663531,0.0,4,37,0.0,0,0,10,0.0,-0.0,0.1,16,0.0,0.1,1.56109798E9,,,,0,,5,5.0,1.56109798E9
Raw,3196737,4000000000,18,0.0,-1295494075599910144,0.0,333.564095198152,-443.3738618663531,0.0,4,2,0.0,0,0,10,0.0,-0.0,0.1,16,0.0,0.1,1.57542003E9,,,,0,,6,5.0,1.57542003E9
Raw,3196737,4000000000,18,0.0,-1295494075599910144,0.0,333.564095198152,-443.3738618663531,0.0,4,3,0.0,0,0,10,0.0,-0.0,0.1,16,0.0,0.1,1.57542003E9,,,,0,,6,5.0,1.57542003E9
Raw,3196737,4000000000,18,0.0,-1295494075599910144,0.0,333.564095198152,-443.3738618663531,0.0,4,7,0.0,0,0,10,0.0,-0.0,0.1,16,0.0,0.1,1.57542003E9,,,,0,,6,5.0,1.57542003E9
Raw,3196737,4000000000,18,0.0,-1295494075599910144,0.0,333.564095198152,-443.3738618663531,0.0,4,8,0.0,0,0,10,0.0,-0.0,0.1,16,0.0,0.1,1.57542003E9,,,,0,,6,5.0,1.57542003E9
Raw,3196737,4000000000,18,0.0,-1295494075599910144,0.0,333.564095198152,-443.3738618663531,0.0,4,25,0.0,0,0,10,0.0,-0.0,0.1,16,0.0,0.1,1.57542003E9,,,,0,,6,5.0,1.57542003E9
Raw,3196737,4000000000,18,0.0,-1295494075599910144,0.0,333.564095198152,-443.3738618663531,0.0,4,27,0.0,0,0,10,0.0,-0.0,0.1,16,0.0,0.1,1.57542003E9,,,,0,,6,5.0,1.57542003E9
Raw,3196737,4000000000,18,0.0,-1295494075599910144,0.0,333.564095198152,-443.3738618663531,0.0,4,30,0.0,0,0,10,0.0,-0.0,0.1,16,0.0,0.1,1.57542003E9,,,,0,,6,5.0,1.57542003E9
Raw,3196737,4000000000,18,0.0,-1295494075599910144,0.0,333.564095198152,-443.3738618663531,0.0,4,193,0.0,0,0,10,0.0,-0.0,0.1,16,0.0,0.1,1.57542003E9,,,,0,,4,5.0,1.57542003E9
Raw,3196738,4000000000,18,0.0,-1295494075599910144,0.0,333.564095198152,-443.3738618663531,0.0,4,194,0.0,0,0,10,0.0,-0.0,0.1,16,0.0,0.1,1.57542003E9,,,,0,,4,5.0,1.57542003E9
Raw,3196738,4000000000,18,0.0,-1295494075599910144,0.0,333.564095198152,-443.3738618663531,0.0,4,195,0.0,0,0,10,0.0,-0.0,0.1,16,0.0,0.1,1.57542003E9,,,,0,,4,5.0,1.57542003E9
Raw,3196738,4000000000,18,0.0,-1295494075599910144,0.0,333.564095198152,-443.3738618663531,0.0,4,1,0.0,0,0,10,0.0,-0.0,0.1,16,0.0,0.1,1.56109798E9,,,,0,,5,5.0,1.56109798E9
Raw,3196738,4000000000,18,0.0,-1295494075599910144,0.0,333.564095198152,-443.3738618663531,0.0,4,2,0.0,0,0,10,0.0,-0.0,0.1,16,0.0,0.1,1.56109798E9,,,,0,,5,5.0,1.56109798E9
Raw,3196738,4000000000,18,0.0,-1295494075599910144,0.0,333.564095198152,-443.3738618663531,0.0,4,3,0.0,0,0,10,0.0,-0.0,0.1,16,0.0,0.1,1.56109798E9,,,,0,,5,5.0,1.56109798E9
Raw,3196738,4000000000,18,0.0,-1295494075599910144,0.0,333.564095198152,-443.3738618663531,0.0,4,4,0.0,0,0,10,0.0,-0.0,0.1,16,0.0,0.1,1.56109798E9,,,,0,,5,5.0,1.56109798E9
Raw,3196738,4000000000,18,0.0,-1295494075599910144,0.0,333.564095198152,-443.3738618663531,0.0,4,5,0.0,0,0,10,0.0,-0.0,0.1,16,0.0,0.1,1.56109798E9,,,,0,,5,5.0,1.56109798E9
Raw,3196738,4000000000,18,0.0,-1295494075599910144,0.0,333.564095198152,-443.3738618663531,0.0,4,31,0.0,3,9750872,10,24.0,-182.37957926232826,0.1,20,-691.7279016417652,0.1,1.57542003E9,,,,1,,1,5.0,1.57542003E9
NMEA,$GNGSA,A,1,,,,,,,,,,,,,0.0,0.0,0.0*2E
,-62167219199999
NMEA,$GPGSA,A,1,,,,,,,,,,,,,0.0,0.0,0.0*30
,-62167219199999
NMEA,$GPGSA,A,1,,,,,,,,,,,,,0.0,0.0,0.0,8*24
,-62167219199999
NMEA,$GLGSA,A,1,,,,,,,,,,,,,0.0,0.0,0.0*2C
,-62167219199999
NMEA,$BDGSA,A,1,,,,,,,,,,,,,0.0,0.0,0.0*21
,-62167219199999
NMEA,$BDGSA,A,1,,,,,,,,,,,,,0.0,0.0,0.0,7*3A
,-62167219199999
NMEA,$GAGSA,A,1,,,,,,,,,,,,,0.0,0.0,0.0*21
,-62167219199999
NMEA,$GAGSA,A,1,,,,,,,,,,,,,0.0,0.0,0.0,1*3C
,-62167219199999
NMEA,$QZGSA,A,1,,,,,,,,,,,,,0.0,0.0,0.0*2C
,-62167219199999
NMEA,$PJGSA,A,1,,,,,,,,,,,,,0.0,0.0,0.0*3D
,-62167219199999
NMEA,$GPGSV,3,1,10,10,44,176,,12,14,039,,20,11,163,,22,15,316,*71
,-62167219199999
NMEA,$GPGSV,3,2,10,23,15,161,,25,52,060,,26,26,201,,29,09,118,*75
,-62167219199999
NMEA,$GPGSV,3,3,10,31,55,287,24,32,66,030,*73
,-62167219199999
NMEA,$GLGSV,2,1,06,65,20,137,,66,76,063,,67,34,333,,76,52,018,*6A
,-62167219199999
NMEA,$GLGSV,2,2,06,77,62,247,,78,11,222,*6B
,-62167219199999
NMEA,$BDGSV,5,1,17,201,41,130,,202,41,229,,203,53,187,,204,28,117,*60
,-62167219199999
NMEA,$BDGSV,5,2,17,205,21,251,,206,64,021,,207,51,174,,208,05,191,*6B
,-62167219199999
NMEA,$BDGSV,5,3,17,209,54,328,,210,33,192,,213,17,214,,216,64,018,*6D
,-62167219199999
NMEA,$BDGSV,5,4,17,220,37,317,,223,54,033,,225,06,048,,232,82,182,*61
,-62167219199999
NMEA,$BDGSV,5,5,17,237,64,258,*65
,-62167219199999
NMEA,$QZGSV,1,1,03,193,56,134,,194,66,080,,195,11,147,*63
,-62167219199999
NMEA,$GAGSV,2,1,07,102,54,047,,103,26,116,,107,40,320,,108,72,063,*67
,-62167219199999
NMEA,$GAGSV,2,2,07,125,05,038,,127,14,212,,130,67,195,*69
,-62167219199999
NMEA,$GPRMC,032742.05,V,3030.729540,N,11424.438720,E,000.0,000.0,240121,,E,N*07
,-62167219199999
NMEA,$GPGGA,032743.86,3030.729540,N,11424.438720,E,0,,0.0,0.0,M,,M,,*79
,-62167219199998
NMEA,$GNGSA,A,1,,,,,,,,,,,,,0.0,0.0,0.0*2E
,-62167219199998
NMEA,$GPGSA,A,1,,,,,,,,,,,,,0.0,0.0,0.0*30
,-62167219199998
NMEA,$GPGSA,A,1,,,,,,,,,,,,,0.0,0.0,0.0,8*24
,-62167219199998
NMEA,$GLGSA,A,1,,,,,,,,,,,,,0.0,0.0,0.0*2C
,-62167219199998
NMEA,$BDGSA,A,1,,,,,,,,,,,,,0.0,0.0,0.0*21
,-62167219199998
NMEA,$BDGSA,A,1,,,,,,,,,,,,,0.0,0.0,0.0,7*3A
,-62167219199998
NMEA,$GAGSA,A,1,,,,,,,,,,,,,0.0,0.0,0.0*21
,-62167219199998
NMEA,$GAGSA,A,1,,,,,,,,,,,,,0.0,0.0,0.0,1*3C
,-62167219199998
NMEA,$QZGSA,A,1,,,,,,,,,,,,,0.0,0.0,0.0*2C
,-62167219199998
NMEA,$PJGSA,A,1,,,,,,,,,,,,,0.0,0.0,0.0*3D
,-62167219199998
NMEA,$GPGSV,3,1,10,10,44,176,,12,14,039,,20,11,163,,22,15,316,*71
,-62167219199998
NMEA,$GPGSV,3,2,10,23,15,161,,25,52,060,19,26,26,201,,29,09,118,*7D
,-62167219199998
NMEA,$GPGSV,3,3,10,31,55,287,24,32,66,030,*73
,-62167219199998
Raw,3198638,5600000000,18,0.0,-1295494075799909888,0.0,333.564095198152,-459.3501422221444,0.0,4,10,0.0,0,0,10,0.0,-0.0,0.1,16,0.0,0.1,1.57542003E9,,,,0,,1,4.0,1.57542003E9
Raw,3198638,5600000000,18,0.0,-1295494075799909888,0.0,333.564095198152,-459.3501422221444,0.0,4,12,0.0,0,0,10,0.0,-0.0,0.1,16,0.0,0.1,1.57542003E9,,,,0,,1,4.0,1.57542003E9
Raw,3198638,5600000000,18,0.0,-1295494075799909888,0.0,333.564095198152,-459.3501422221444,0.0,4,20,0.0,0,0,10,0.0,-0.0,0.1,16,0.0,0.1,1.57542003E9,,,,0,,1,4.0,1.57542003E9
Raw,3198638,5600000000,18,0.0,-1295494075799909888,0.0,333.564095198152,-459.3501422221444,0.0,4,22,0.0,0,0,10,0.0,-0.0,0.1,16,0.0,0.1,1.57542003E9,,,,0,,1,4.0,1.57542003E9
Raw,3198638,5600000000,18,0.0,-1295494075799909888,0.0,333.564095198152,-459.3501422221444,0.0,4,23,0.0,0,0,10,0.0,-0.0,0.1,16,0.0,0.1,1.57542003E9,,,,0,,1,4.0,1.57542003E9
Raw,3198638,5600000000,18,0.0,-1295494075799909888,0.0,333.564095198152,-459.3501422221444,0.0,4,26,0.0,0,0,10,0.0,-0.0,0.1,16,0.0,0.1,1.57542003E9,,,,0,,1,4.0,1.57542003E9
Raw,3198639,5600000000,18,0.0,-1295494075799909888,0.0,333.564095198152,-459.3501422221444,0.0,4,29,0.0,0,0,10,0.0,-0.0,0.1,16,0.0,0.1,1.57542003E9,,,,0,,1,4.0,1.57542003E9
Raw,3198639,5600000000,18,0.0,-1295494075799909888,0.0,333.564095198152,-459.3501422221444,0.0,4,32,0.0,0,0,10,0.0,-0.0,0.1,16,0.0,0.1,1.57542003E9,,,,0,,1,4.0,1.57542003E9
Raw,3198639,5600000000,18,0.0,-1295494075799909888,0.0,333.564095198152,-459.3501422221444,0.0,4,1,0.0,0,0,10,0.0,-0.0,0.1,16,0.0,0.1,1.60256256E9,,,,0,,3,4.0,1.60256256E9
Raw,3198639,5600000000,18,0.0,-1295494075799909888,0.0,333.564095198152,-459.3501422221444,0.0,4,2,0.0,0,0,10,0.0,-0.0,0.1,16,0.0,0.1,1.59975002E9,,,,0,,3,4.0,1.59975002E9
Raw,3198639,5600000000,18,0.0,-1295494075799909888,0.0,333.564095198152,-459.3501422221444,0.0,4,3,0.0,0,0,10,0.0,-0.0,0.1,16,0.0,0.1,1.60481254E9,,,,0,,3,4.0,1.60481254E9
Raw,3198639,5600000000,18,0.0,-1295494075799909888,0.0,333.564095198152,-459.3501422221444,0.0,4,12,0.0,0,0,10,0.0,-0.0,0.1,16,0.0,0.1,1.60143744E9,,,,0,,3,4.0,1.60143744E9
Raw,3198639,5600000000,18,0.0,-1295494075799909888,0.0,333.564095198152,-459.3501422221444,0.0,4,13,0.0,0,0,10,0.0,-0.0,0.1,16,0.0,0.1,1.60087501E9,,,,0,,3,4.0,1.60087501E9
Raw,3198640,5600000000,18,0.0,-1295494075799909888,0.0,333.564095198152,-459.3501422221444,0.0,4,14,0.0,0,0,10,0.0,-0.0,0.1,16,0.0,0.1,1.59806246E9,,,,0,,3,4.0,1.59806246E9
Raw,3198640,5600000000,18,0.0,-1295494075799909888,0.0,333.564095198152,-459.3501422221444,0.0,4,6,0.0,0,0,10,0.0,-0.0,0.1,16,0.0,0.1,1.56109798E9,,,,0,,5,4.0,1.56109798E9
Raw,3198640,5600000000,18,0.0,-1295494075799909888,0.0,333.564095198152,-459.3501422221444,0.0,4,7,0.0,0,0,10,0.0,-0.0,0.1,16,0.0,0.1,1.56109798E9,,,,0,,5,4.0,1.56109798E9
Raw,3198640,5600000000,18,0.0,-1295494075799909888,0.0,333.564095198152,-459.3501422221444,0.0,4,8,0.0,0,0,10,0.0,-0.0,0.1,16,0.0,0.1,1.56109798E9,,,,0,,5,4.0,1.56109798E9
Raw,3198640,5600000000,18,0.0,-1295494075799909888,0.0,333.564095198152,-459.3501422221444,0.0,4,9,0.0,0,0,10,0.0,-0.0,0.1,16,0.0,0.1,1.56109798E9,,,,0,,5,4.0,1.56109798E9
Raw,3198640,5600000000,18,0.0,-1295494075799909888,0.0,333.564095198152,-459.3501422221444,0.0,4,10,0.0,0,0,10,0.0,-0.0,0.1,16,0.0,0.1,1.56109798E9,,,,0,,5,4.0,1.56109798E9
Raw,3198641,5600000000,18,0.0,-1295494075799909888,0.0,333.564095198152,-459.3501422221444,0.0,4,13,0.0,0,0,10,0.0,-0.0,0.1,16,0.0,0.1,1.56109798E9,,,,0,,5,4.0,1.56109798E9
Raw,3198641,5600000000,18,0.0,-1295494075799909888,0.0,333.564095198152,-459.3501422221444,0.0,4,16,0.0,0,0,10,0.0,-0.0,0.1,16,0.0,0.1,1.56109798E9,,,,0,,5,4.0,1.56109798E9
Raw,3198641,5600000000,18,0.0,-1295494075799909888,0.0,333.564095198152,-459.3501422221444,0.0,4,23,0.0,0,0,10,0.0,-0.0,0.1,16,0.0,0.1,1.56109798E9,,,,0,,5,4.0,1.56109798E9
Raw,3198641,5600000000,18,0.0,-1295494075799909888,0.0,333.564095198152,-459.3501422221444,0.0,4,25,0.0,0,0,10,0.0,-0.0,0.1,16,0.0,0.1,1.56109798E9,,,,0,,5,4.0,1.56109798E9
Raw,3198641,5600000000,18,0.0,-1295494075799909888,0.0,333.564095198152,-459.3501422221444,0.0,4,32,0.0,0,0,10,0.0,-0.0,0.1,16,0.0,0.1,1.56109798E9,,,,0,,5,4.0,1.56109798E9
Raw,3198641,5600000000,18,0.0,-1295494075799909888,0.0,333.564095198152,-459.3501422221444,0.0,4,2,0.0,0,0,10,0.0,-0.0,0.1,16,0.0,0.1,1.57542003E9,,,,0,,6,4.0,1.57542003E9
Raw,3198641,5600000000,18,0.0,-1295494075799909888,0.0,333.564095198152,-459.3501422221444,0.0,4,3,0.0,0,0,10,0.0,-0.0,0.1,16,0.0,0.1,1.57542003E9,,,,0,,6,4.0,1.57542003E9
Raw,3198641,5600000000,18,0.0,-1295494075799909888,0.0,333.564095198152,-459.3501422221444,0.0,4,7,0.0,0,0,10,0.0,-0.0,0.1,16,0.0,0.1,1.57542003E9,,,,0,,6,4.0,1.57542003E9
Raw,3198642,5600000000,18,0.0,-1295494075799909888,0.0,333.564095198152,-459.3501422221444,0.0,4,8,0.0,0,0,10,0.0,-0.0,0.1,16,0.0,0.1,1.57542003E9,,,,0,,6,4.0,1.57542003E9
Raw,3198642,5600000000,18,0.0,-1295494075799909888,0.0,333.564095198152,-459.3501422221444,0.0,4,25,0.0,0,0,10,0.0,-0.0,0.1,16,0.0,0.1,1.57542003E9,,,,0,,6,4.0,1.57542003E9
Raw,3198642,5600000000,18,0.0,-1295494075799909888,0.0,333.564095198152,-459.3501422221444,0.0,4,27,0.0,0,0,10,0.0,-0.0,0.1,16,0.0,0.1,1.57542003E9,,,,0,,6,4.0,1.57542003E9
Raw,3198642,5600000000,18,0.0,-1295494075799909888,0.0,333.564095198152,-459.3501422221444,0.0,4,30,0.0,0,0,10,0.0,-0.0,0.1,16,0.0,0.1,1.57542003E9,,,,0,,6,4.0,1.57542003E9
Raw,3198642,5600000000,18,0.0,-1295494075799909888,0.0,333.564095198152,-459.3501422221444,0.0,4,193,0.0,0,0,10,0.0,-0.0,0.1,16,0.0,0.1,1.57542003E9,,,,0,,4,4.0,1.57542003E9
Raw,3198642,5600000000,18,0.0,-1295494075799909888,0.0,333.564095198152,-459.3501422221444,0.0,4,194,0.0,0,0,10,0.0,-0.0,0.1,16,0.0,0.1,1.57542003E9,,,,0,,4,4.0,1.57542003E9
Raw,3198642,5600000000,18,0.0,-1295494075799909888,0.0,333.564095198152,-459.3501422221444,0.0,4,195,0.0,0,0,10,0.0,-0.0,0.1,16,0.0,0.1,1.57542003E9,,,,0,,4,4.0,1.57542003E9
Raw,3198643,5600000000,18,0.0,-1295494075799909888,0.0,333.564095198152,-459.3501422221444,0.0,4,1,0.0,0,0,10,0.0,-0.0,0.1,16,0.0,0.1,1.56109798E9,,,,0,,5,4.0,1.56109798E9
Raw,3198643,5600000000,18,0.0,-1295494075799909888,0.0,333.564095198152,-459.3501422221444,0.0,4,2,0.0,0,0,10,0.0,-0.0,0.1,16,0.0,0.1,1.56109798E9,,,,0,,5,4.0,1.56109798E9
Raw,3198643,5600000000,18,0.0,-1295494075799909888,0.0,333.564095198152,-459.3501422221444,0.0,4,3,0.0,0,0,10,0.0,-0.0,0.1,16,0.0,0.1,1.56109798E9,,,,0,,5,4.0,1.56109798E9
Raw,3198643,5600000000,18,0.0,-1295494075799909888,0.0,333.564095198152,-459.3501422221444,0.0,4,4,0.0,0,0,10,0.0,-0.0,0.1,16,0.0,0.1,1.56109798E9,,,,0,,5,4.0,1.56109798E9
Raw,3198643,5600000000,18,0.0,-1295494075799909888,0.0,333.564095198152,-459.3501422221444,0.0,4,5,0.0,0,0,10,0.0,-0.0,0.1,16,0.0,0.1,1.56109798E9,,,,0,,5,4.0,1.56109798E9
Raw,3198643,5600000000,18,0.0,-1295494075799909888,0.0,333.564095198152,-459.3501422221444,0.0,4,31,0.0,3,9751494,7,24.0,-273.6194585487714,0.05,17,-1242.2008647722841,0.1,1.57542003E9,,,,2,,1,4.0,1.57542003E9
Raw,3198643,5600000000,18,0.0,-1295494075799909888,0.0,333.564095198152,-459.3501422221444,0.0,4,25,0.0,3,9390029,10,19.0,134.96252999459333,0.1,16,0.0,0.1,1.57542003E9,,,,0,,1,4.0,1.57542003E9
Raw,3198644,5600000000,18,0.0,-1295494075799909888,0.0,333.564095198152,-459.3501422221444,0.0,4,37,0.0,3,4979395,5,33.0,-295.4254478725994,0.02,16,0.0,0.1,1.56109798E9,,,,2,,5,4.0,1.56109798E9
Raw,3198644,5600000000,18,0.0,-1295494075799909888,0.0,333.564095198152,-459.3501422221444,0.0,4,20,0.0,3,19776274,10,29.0,-602.3381250873576,0.1,18,-0.04206282510272792,0.1,1.56109798E9,,,,2,,5,4.0,1.56109798E9
NMEA,$GLGSV,2,1,06,65,20,137,,66,76,063,,67,34,333,,76,52,018,*6A
,-62167219199998
NMEA,$GLGSV,2,2,06,77,62,247,,78,11,222,*6B
,-62167219199998
NMEA,$BDGSV,5,1,17,201,41,130,,202,41,229,,203,53,187,,204,28,117,*60
,-62167219199998
NMEA,$BDGSV,5,2,17,205,21,251,,206,64,021,,207,51,174,,208,05,191,*6B
,-62167219199998
NMEA,$BDGSV,5,3,17,209,54,328,,210,33,192,,213,17,214,,216,64,018,*6D
,-62167219199998
NMEA,$BDGSV,5,4,17,220,37,317,29,223,54,033,,225,06,048,,232,82,182,*6A
,-62167219199998
NMEA,$BDGSV,5,5,17,237,64,258,33*65
,-62167219199998
NMEA,$QZGSV,1,1,03,193,56,134,,194,66,080,,195,11,147,*63
,-62167219199998
NMEA,$GAGSV,2,1,07,102,54,047,,103,26,116,,107,40,320,,108,72,063,*67
,-62167219199998
NMEA,$GAGSV,2,2,07,125,05,038,,127,14,213,,130,67,195,*68
,-62167219199998
NMEA,$GPRMC,032743.86,V,3030.729540,N,11424.438720,E,000.0,000.0,240121,,E,N*0D
,-62167219199998
NMEA,$GPGGA,032744.86,3030.729540,N,11424.438720,E,0,,0.0,0.0,M,,M,,*7E
,-62167219199997
NMEA,$GNGSA,A,1,,,,,,,,,,,,,0.0,0.0,0.0*2E
,-62167219199997
NMEA,$GPGSA,A,1,,,,,,,,,,,,,0.0,0.0,0.0*30
,-62167219199997
NMEA,$GPGSA,A,1,,,,,,,,,,,,,0.0,0.0,0.0,8*24
,-62167219199997
NMEA,$GLGSA,A,1,,,,,,,,,,,,,0.0,0.0,0.0*2C
,-62167219199997
Raw,3199604,6600000000,18,0.0,-1295494075799909888,0.0,333.564095198152,-459.78560820630713,0.0,4,10,0.0,0,0,10,0.0,-0.0,0.1,16,0.0,0.1,1.57542003E9,,,,0,,1,5.0,1.57542003E9
Raw,3199605,6600000000,18,0.0,-1295494075799909888,0.0,333.564095198152,-459.78560820630713,0.0,4,12,0.0,0,0,10,0.0,-0.0,0.1,16,0.0,0.1,1.57542003E9,,,,0,,1,5.0,1.57542003E9
Raw,3199605,6600000000,18,0.0,-1295494075799909888,0.0,333.564095198152,-459.78560820630713,0.0,4,20,0.0,0,0,10,0.0,-0.0,0.1,16,0.0,0.1,1.57542003E9,,,,0,,1,5.0,1.57542003E9
Raw,3199606,6600000000,18,0.0,-1295494075799909888,0.0,333.564095198152,-459.78560820630713,0.0,4,22,0.0,0,0,10,0.0,-0.0,0.1,16,0.0,0.1,1.57542003E9,,,,0,,1,5.0,1.57542003E9
Raw,3199606,6600000000,18,0.0,-1295494075799909888,0.0,333.564095198152,-459.78560820630713,0.0,4,23,0.0,0,0,10,0.0,-0.0,0.1,16,0.0,0.1,1.57542003E9,,,,0,,1,5.0,1.57542003E9
Raw,3199606,6600000000,18,0.0,-1295494075799909888,0.0,333.564095198152,-459.78560820630713,0.0,4,26,0.0,0,0,10,0.0,-0.0,0.1,16,0.0,0.1,1.57542003E9,,,,0,,1,5.0,1.57542003E9
Raw,3199606,6600000000,18,0.0,-1295494075799909888,0.0,333.564095198152,-459.78560820630713,0.0,4,29,0.0,0,0,10,0.0,-0.0,0.1,16,0.0,0.1,1.57542003E9,,,,0,,1,5.0,1.57542003E9
Raw,3199607,6600000000,18,0.0,-1295494075799909888,0.0,333.564095198152,-459.78560820630713,0.0,4,32,0.0,0,0,10,0.0,-0.0,0.1,16,0.0,0.1,1.57542003E9,,,,0,,1,5.0,1.57542003E9
Raw,3199607,6600000000,18,0.0,-1295494075799909888,0.0,333.564095198152,-459.78560820630713,0.0,4,1,0.0,0,0,10,0.0,-0.0,0.1,16,0.0,0.1,1.60256256E9,,,,0,,3,5.0,1.60256256E9
Raw,3199607,6600000000,18,0.0,-1295494075799909888,0.0,333.564095198152,-459.78560820630713,0.0,4,2,0.0,0,0,10,0.0,-0.0,0.1,16,0.0,0.1,1.59975002E9,,,,0,,3,5.0,1.59975002E9
Raw,3199608,6600000000,18,0.0,-1295494075799909888,0.0,333.564095198152,-459.78560820630713,0.0,4,3,0.0,0,0,10,0.0,-0.0,0.1,16,0.0,0.1,1.60481254E9,,,,0,,3,5.0,1.60481254E9
Raw,3199608,6600000000,18,0.0,-1295494075799909888,0.0,333.564095198152,-459.78560820630713,0.0,4,12,0.0,0,0,10,0.0,-0.0,0.1,16,0.0,0.1,1.60143744E9,,,,0,,3,5.0,1.60143744E9
Raw,3199609,6600000000,18,0.0,-1295494075799909888,0.0,333.564095198152,-459.78560820630713,0.0,4,13,0.0,0,0,10,0.0,-0.0,0.1,16,0.0,0.1,1.60087501E9,,,,0,,3,5.0,1.60087501E9
Raw,3199609,6600000000,18,0.0,-1295494075799909888,0.0,333.564095198152,-459.78560820630713,0.0,4,14,0.0,0,0,10,0.0,-0.0,0.1,16,0.0,0.1,1.59806246E9,,,,0,,3,5.0,1.59806246E9
Raw,3199609,6600000000,18,0.0,-1295494075799909888,0.0,333.564095198152,-459.78560820630713,0.0,4,6,0.0,0,0,10,0.0,-0.0,0.1,16,0.0,0.1,1.56109798E9,,,,0,,5,5.0,1.56109798E9
Raw,3199609,6600000000,18,0.0,-1295494075799909888,0.0,333.564095198152,-459.78560820630713,0.0,4,7,0.0,0,0,10,0.0,-0.0,0.1,16,0.0,0.1,1.56109798E9,,,,0,,5,5.0,1.56109798E9
Raw,3199610,6600000000,18,0.0,-1295494075799909888,0.0,333.564095198152,-459.78560820630713,0.0,4,8,0.0,0,0,10,0.0,-0.0,0.1,16,0.0,0.1,1.56109798E9,,,,0,,5,5.0,1.56109798E9
Raw,3199610,6600000000,18,0.0,-1295494075799909888,0.0,333.564095198152,-459.78560820630713,0.0,4,9,0.0,0,0,10,0.0,-0.0,0.1,16,0.0,0.1,1.56109798E9,,,,0,,5,5.0,1.56109798E9
Raw,3199610,6600000000,18,0.0,-1295494075799909888,0.0,333.564095198152,-459.78560820630713,0.0,4,10,0.0,0,0,10,0.0,-0.0,0.1,16,0.0,0.1,1.56109798E9,,,,0,,5,5.0,1.56109798E9
Raw,3199611,6600000000,18,0.0,-1295494075799909888,0.0,333.564095198152,-459.78560820630713,0.0,4,13,0.0,0,0,10,0.0,-0.0,0.1,16,0.0,0.1,1.56109798E9,,,,0,,5,5.0,1.56109798E9
Raw,3199611,6600000000,18,0.0,-1295494075799909888,0.0,333.564095198152,-459.78560820630713,0.0,4,16,0.0,0,0,10,0.0,-0.0,0.1,16,0.0,0.1,1.56109798E9,,,,0,,5,5.0,1.56109798E9
Raw,3199611,6600000000,18,0.0,-1295494075799909888,0.0,333.564095198152,-459.78560820630713,0.0,4,23,0.0,0,0,10,0.0,-0.0,0.1,16,0.0,0.1,1.56109798E9,,,,0,,5,5.0,1.56109798E9
Raw,3199611,6600000000,18,0.0,-1295494075799909888,0.0,333.564095198152,-459.78560820630713,0.0,4,25,0.0,0,0,10,0.0,-0.0,0.1,16,0.0,0.1,1.56109798E9,,,,0,,5,5.0,1.56109798E9
Raw,3199612,6600000000,18,0.0,-1295494075799909888,0.0,333.564095198152,-459.78560820630713,0.0,4,32,0.0,0,0,10,0.0,-0.0,0.1,16,0.0,0.1,1.56109798E9,,,,0,,5,5.0,1.56109798E9
Raw,3199612,6600000000,18,0.0,-1295494075799909888,0.0,333.564095198152,-459.78560820630713,0.0,4,2,0.0,0,0,10,0.0,-0.0,0.1,16,0.0,0.1,1.57542003E9,,,,0,,6,5.0,1.57542003E9
Raw,3199612,6600000000,18,0.0,-1295494075799909888,0.0,333.564095198152,-459.78560820630713,0.0,4,3,0.0,0,0,10,0.0,-0.0,0.1,16,0.0,0.1,1.57542003E9,,,,0,,6,5.0,1.57542003E9
Raw,3199612,6600000000,18,0.0,-1295494075799909888,0.0,333.564095198152,-459.78560820630713,0.0,4,7,0.0,0,0,10,0.0,-0.0,0.1,16,0.0,0.1,1.57542003E9,,,,0,,6,5.0,1.57542003E9
Raw,3199613,6600000000,18,0.0,-1295494075799909888,0.0,333.564095198152,-459.78560820630713,0.0,4,8,0.0,0,0,10,0.0,-0.0,0.1,16,0.0,0.1,1.57542003E9,,,,0,,6,5.0,1.57542003E9
Raw,3199613,6600000000,18,0.0,-1295494075799909888,0.0,333.564095198152,-459.78560820630713,0.0,4,25,0.0,0,0,10,0.0,-0.0,0.1,16,0.0,0.1,1.57542003E9,,,,0,,6,5.0,1.57542003E9
Raw,3199613,6600000000,18,0.0,-1295494075799909888,0.0,333.564095198152,-459.78560820630713,0.0,4,27,0.0,0,0,10,0.0,-0.0,0.1,16,0.0,0.1,1.57542003E9,,,,0,,6,5.0,1.57542003E9
Raw,3199614,6600000000,18,0.0,-1295494075799909888,0.0,333.564095198152,-459.78560820630713,0.0,4,30,0.0,0,0,10,0.0,-0.0,0.1,16,0.0,0.1,1.57542003E9,,,,0,,6,5.0,1.57542003E9
Raw,3199614,6600000000,18,0.0,-1295494075799909888,0.0,333.564095198152,-459.78560820630713,0.0,4,193,0.0,0,0,10,0.0,-0.0,0.1,16,0.0,0.1,1.57542003E9,,,,0,,4,5.0,1.57542003E9
Raw,3199614,6600000000,18,0.0,-1295494075799909888,0.0,333.564095198152,-459.78560820630713,0.0,4,194,0.0,0,0,10,0.0,-0.0,0.1,16,0.0,0.1,1.57542003E9,,,,0,,4,5.0,1.57542003E9
Raw,3199614,6600000000,18,0.0,-1295494075799909888,0.0,333.564095198152,-459.78560820630713,0.0,4,195,0.0,0,0,10,0.0,-0.0,0.1,16,0.0,0.1,1.57542003E9,,,,0,,4,5.0,1.57542003E9
Raw,3199615,6600000000,18,0.0,-1295494075799909888,0.0,333.564095198152,-459.78560820630713,0.0,4,1,0.0,0,0,10,0.0,-0.0,0.1,16,0.0,0.1,1.56109798E9,,,,0,,5,5.0,1.56109798E9
Raw,3199615,6600000000,18,0.0,-1295494075799909888,0.0,333.564095198152,-459.78560820630713,0.0,4,2,0.0,0,0,10,0.0,-0.0,0.1,16,0.0,0.1,1.56109798E9,,,,0,,5,5.0,1.56109798E9
Raw,3199615,6600000000,18,0.0,-1295494075799909888,0.0,333.564095198152,-459.78560820630713,0.0,4,3,0.0,0,0,10,0.0,-0.0,0.1,16,0.0,0.1,1.56109798E9,,,,0,,5,5.0,1.56109798E9
Raw,3199615,6600000000,18,0.0,-1295494075799909888,0.0,333.564095198152,-459.78560820630713,0.0,4,4,0.0,0,0,10,0.0,-0.0,0.1,16,0.0,0.1,1.56109798E9,,,,0,,5,5.0,1.56109798E9
Raw,3199616,6600000000,18,0.0,-1295494075799909888,0.0,333.564095198152,-459.78560820630713,0.0,4,5,0.0,0,0,10,0.0,-0.0,0.1,16,0.0,0.1,1.56109798E9,,,,0,,5,5.0,1.56109798E9
Raw,3199616,6600000000,18,0.0,-1295494075799909888,0.0,333.564095198152,-459.78560820630713,0.0,4,31,0.0,3,9752417,11,23.0,-273.8345406902691,0.05,17,-1516.0558754145604,0.1,1.57542003E9,,,,1,,1,5.0,1.57542003E9
Raw,3199616,6600000000,18,0.0,-1295494075799909888,0.0,333.564095198152,-459.78560820630713,0.0,4,25,0.0,3,9389853,10,9.0,133.8056167068165,0.1,18,-0.07534340339726228,0.1,1.57542003E9,,,,0,,1,5.0,1.57542003E9
Raw,3199617,6600000000,18,0.0,-1295494075799909888,0.0,333.564095198152,-459.78560820630713,0.0,4,37,0.0,3,4980365,9,29.0,-295.826748159628,0.030000001144409223,18,0.07797999073387472,0.1,1.56109798E9,,,,1,,5,5.0,1.56109798E9
Raw,3199617,6600000000,18,0.0,-1295494075799909888,0.0,333.564095198152,-459.78560820630713,0.0,4,20,0.0,3,19778309,10,21.0,-602.1044666919887,0.1,17,-602.2280376940115,0.1,1.56109798E9,,,,1,,5,5.0,1.56109798E9
NMEA,$BDGSA,A,1,,,,,,,,,,,,,0.0,0.0,0.0*21
,-62167219199997
NMEA,$BDGSA,A,1,,,,,,,,,,,,,0.0,0.0,0.0,7*3A
,-62167219199997
NMEA,$GAGSA,A,1,,,,,,,,,,,,,0.0,0.0,0.0*21
,-62167219199997
NMEA,$GAGSA,A,1,,,,,,,,,,,,,0.0,0.0,0.0,1*3C
,-62167219199997
NMEA,$QZGSA,A,1,,,,,,,,,,,,,0.0,0.0,0.0*2C
,-62167219199997
NMEA,$PJGSA,A,1,,,,,,,,,,,,,0.0,0.0,0.0*3D
,-62167219199997
NMEA,$GPGSV,3,1,10,10,44,176,,12,14,039,,20,11,163,,22,15,316,*71
,-62167219199997
NMEA,$GPGSV,3,2,10,23,15,161,,25,52,060,09,26,26,201,,29,09,118,*7C
,-62167219199997
NMEA,$GPGSV,3,3,10,31,55,287,23,32,66,031,*75
,-62167219199997
NMEA,$GLGSV,2,1,06,65,20,137,,66,76,063,,67,34,333,,76,52,018,*6A
,-62167219199997
NMEA,$GLGSV,2,2,06,77,62,247,,78,11,222,*6B
,-62167219199997
NMEA,$BDGSV,5,1,17,201,41,130,,202,41,229,,203,53,187,,204,28,117,*60
,-62167219199997
NMEA,$BDGSV,5,2,17,205,21,251,,206,64,021,,207,51,174,,208,05,191,*6B
,-62167219199997
NMEA,$BDGSV,5,3,17,209,54,328,,210,33,192,,213,17,214,,216,64,018,*6D
,-62167219199997
NMEA,$BDGSV,5,4,17,220,37,317,21,223,54,033,,225,06,048,,232,82,182,*62
,-62167219199997
NMEA,$BDGSV,5,5,17,237,64,258,29*6E
,-62167219199997
NMEA,$QZGSV,1,1,03,193,56,134,,194,66,080,,195,11,147,*63
,-62167219199997
NMEA,$GAGSV,2,1,07,102,54,047,,103,26,116,,107,40,320,,108,72,063,*67
,-62167219199997
NMEA,$GAGSV,2,2,07,125,05,038,,127,14,213,,130,67,195,*68
,-62167219199997
NMEA,$GPRMC,032744.86,V,3030.729540,N,11424.438720,E,000.0,000.0,240121,,E,N*0A
,-62167219199997
NMEA,$GPGGA,032745.86,3030.729540,N,11424.438720,E,0,,0.0,0.0,M,,M,,*7F
,-62167219199997
NMEA,$GNGSA,A,1,,,,,,,,,,,,,0.0,0.0,0.0*2E
,-62167219199997
NMEA,$GPGSA,A,1,,,,,,,,,,,,,0.0,0.0,0.0*30
,-62167219199997
NMEA,$GPGSA,A,1,,,,,,,,,,,,,0.0,0.0,0.0,8*24
,-62167219199997
NMEA,$GLGSA,A,1,,,,,,,,,,,,,0.0,0.0,0.0*2C
,-62167219199997
Raw,3200602,7600000000,18,0.0,-1295494075799909888,0.0,333.564095198152,-459.6164658823261,0.0,4,10,0.0,0,0,10,0.0,-0.0,0.1,16,0.0,0.1,1.57542003E9,,,,0,,1,5.0,1.57542003E9
Raw,3200603,7600000000,18,0.0,-1295494075799909888,0.0,333.564095198152,-459.6164658823261,0.0,4,12,0.0,0,0,10,0.0,-0.0,0.1,16,0.0,0.1,1.57542003E9,,,,0,,1,5.0,1.57542003E9
Raw,3200603,7600000000,18,0.0,-1295494075799909888,0.0,333.564095198152,-459.6164658823261,0.0,4,20,0.0,0,0,10,0.0,-0.0,0.1,16,0.0,0.1,1.57542003E9,,,,0,,1,5.0,1.57542003E9
Raw,3200603,7600000000,18,0.0,-1295494075799909888,0.0,333.564095198152,-459.6164658823261,0.0,4,22,0.0,0,0,10,0.0,-0.0,0.1,16,0.0,0.1,1.57542003E9,,,,0,,1,5.0,1.57542003E9
Raw,3200603,7600000000,18,0.0,-1295494075799909888,0.0,333.564095198152,-459.6164658823261,0.0,4,23,0.0,0,0,10,0.0,-0.0,0.1,16,0.0,0.1,1.57542003E9,,,,0,,1,5.0,1.57542003E9
Raw,3200604,7600000000,18,0.0,-1295494075799909888,0.0,333.564095198152,-459.6164658823261,0.0,4,26,0.0,0,0,10,0.0,-0.0,0.1,16,0.0,0.1,1.57542003E9,,,,0,,1,5.0,1.57542003E9
Raw,3200604,7600000000,18,0.0,-1295494075799909888,0.0,333.564095198152,-459.6164658823261,0.0,4,29,0.0,0,0,10,0.0,-0.0,0.1,16,0.0,0.1,1.57542003E9,,,,0,,1,5.0,1.57542003E9
Raw,3200604,7600000000,18,0.0,-1295494075799909888,0.0,333.564095198152,-459.6164658823261,0.0,4,1,0.0,0,0,10,0.0,-0.0,0.1,16,0.0,0.1,1.60256256E9,,,,0,,3,5.0,1.60256256E9
Raw,3200604,7600000000,18,0.0,-1295494075799909888,0.0,333.564095198152,-459.6164658823261,0.0,4,2,0.0,0,0,10,0.0,-0.0,0.1,16,0.0,0.1,1.59975002E9,,,,0,,3,5.0,1.59975002E9
Raw,3200604,7600000000,18,0.0,-1295494075799909888,0.0,333.564095198152,-459.6164658823261,0.0,4,3,0.0,0,0,10,0.0,-0.0,0.1,16,0.0,0.1,1.60481254E9,,,,0,,3,5.0,1.60481254E9
Raw,3200604,7600000000,18,0.0,-1295494075799909888,0.0,333.564095198152,-459.6164658823261,0.0,4,12,0.0,0,0,10,0.0,-0.0,0.1,16,0.0,0.1,1.60143744E9,,,,0,,3,5.0,1.60143744E9
Raw,3200604,7600000000,18,0.0,-1295494075799909888,0.0,333.564095198152,-459.6164658823261,0.0,4,13,0.0,0,0,10,0.0,-0.0,0.1,16,0.0,0.1,1.60087501E9,,,,0,,3,5.0,1.60087501E9
Raw,3200605,7600000000,18,0.0,-1295494075799909888,0.0,333.564095198152,-459.6164658823261,0.0,4,14,0.0,0,0,10,0.0,-0.0,0.1,16,0.0,0.1,1.59806246E9,,,,0,,3,5.0,1.59806246E9
Raw,3200605,7600000000,18,0.0,-1295494075799909888,0.0,333.564095198152,-459.6164658823261,0.0,4,6,0.0,0,0,10,0.0,-0.0,0.1,16,0.0,0.1,1.56109798E9,,,,0,,5,5.0,1.56109798E9
Raw,3200605,7600000000,18,0.0,-1295494075799909888,0.0,333.564095198152,-459.6164658823261,0.0,4,7,0.0,0,0,10,0.0,-0.0,0.1,16,0.0,0.1,1.56109798E9,,,,0,,5,5.0,1.56109798E9
Raw,3200605,7600000000,18,0.0,-1295494075799909888,0.0,333.564095198152,-459.6164658823261,0.0,4,8,0.0,0,0,10,0.0,-0.0,0.1,16,0.0,0.1,1.56109798E9,,,,0,,5,5.0,1.56109798E9
Raw,3200605,7600000000,18,0.0,-1295494075799909888,0.0,333.564095198152,-459.6164658823261,0.0,4,9,0.0,0,0,10,0.0,-0.0,0.1,16,0.0,0.1,1.56109798E9,,,,0,,5,5.0,1.56109798E9
