# 
# Header Description:
# 
# Version: v2.0.0.1 Platform: 10 Manufacturer: HUAWEI Model: LYA-AL10
# 
# Raw,ElapsedRealtimeMillis,TimeNanos,LeapSecond,TimeUncertaintyNanos,FullBiasNanos,BiasNanos,BiasUncertaintyNanos,DriftNanosPerSecond,DriftUncertaintyNanosPerSecond,HardwareClockDiscontinuityCount,Svid,TimeOffsetNanos,State,ReceivedSvTimeNanos,ReceivedSvTimeUncertaintyNanos,Cn0DbHz,PseudorangeRateMetersPerSecond,PseudorangeRateUncertaintyMetersPerSecond,AccumulatedDeltaRangeState,AccumulatedDeltaRangeMeters,AccumulatedDeltaRangeUncertaintyMeters,CarrierFrequencyHz,CarrierCycles,CarrierPhase,CarrierPhaseUncertainty,MultipathIndicator,SnrInDb,ConstellationType,AgcDb,CarrierFrequencyHz
# 
# Fix,Provider,Latitude,Longitude,Altitude,Speed,Accuracy,(UTC)TimeInMs
# 
# Nav,Svid,Type,Status,MessageId,Sub-messageId,Data(Bytes)
# 
NMEA,$GPGGA,131736.50,3030.727320,N,11424.432720,E,0,,0.0,0.0,M,,M,,*76
,-62167219199997
NMEA,$GNGSA,A,1,,,,,,,,,,,,,0.0,0.0,0.0*2E
,-62167219199997
NMEA,$GPGSA,A,1,,,,,,,,,,,,,0.0,0.0,0.0*30
,-62167219199997
NMEA,$GPGSA,A,1,,,,,,,,,,,,,0.0,0.0,0.0,8*24
,-62167219199997
NMEA,$GLGSA,A,1,,,,,,,,,,,,,0.0,0.0,0.0*2C
,-62167219199997
NMEA,$BDGSA,A,1,,,,,,,,,,,,,0.0,0.0,0.0*21
,-62167219199997
NMEA,$BDGSA,A,1,,,,,,,,,,,,,0.0,0.0,0.0,7*3A
,-62167219199997
NMEA,$GAGSA,A,1,,,,,,,,,,,,,0.0,0.0,0.0*21
,-62167219199997
NMEA,$GAGSA,A,1,,,,,,,,,,,,,0.0,0.0,0.0,1*3C
,-62167219199997
NMEA,$QZGSA,A,1,,,,,,,,,,,,,0.0,0.0,0.0*2C
,-62167219199997
NMEA,$PJGSA,A,1,,,,,,,,,,,,,0.0,0.0,0.0*3D
,-62167219199997
NMEA,$GPGSV,4,1,13,01,46,037,,03,38,115,,06,20,225,,07,18,186,*74
,-62167219199997
NMEA,$GPGSV,4,2,13,08,11,077,,11,23,051,,14,73,340,,17,41,304,13*70
,-62167219199997
NMEA,$GPGSV,4,3,13,19,24,284,26,21,24,042,,22,36,081,,28,63,334,17*7A
,-62167219199997
NMEA,$GPGSV,4,4,13,30,37,218,26*43
,-62167219199997
NMEA,$GLGSV,3,1,09,66,06,051,,67,09,099,,73,34,324,27,79,27,165,*6E
,-62167219199997
NMEA,$GLGSV,3,2,09,80,74,242,,81,05,045,,82,43,012,,83,51,294,*61
,-62167219199997
NMEA,$GLGSV,3,3,09,84,08,246,*58
,-62167219199997
NMEA,$BDGSV,4,1,16,201,42,130,,202,40,228,,203,54,187,,204,30,115,*6F
,-62167219199997
NMEA,$BDGSV,4,2,16,205,20,249,,207,77,094,,208,73,207,19,210,75,334,*6D
,-62167219199997
NMEA,$BDGSV,4,3,16,212,35,275,34,213,45,214,,219,17,084,,222,16,136,*6F
,-62167219199997
NMEA,$BDGSV,4,4,16,224,45,294,29,226,55,209,20,234,12,262,,235,45,037,*60
,-62167219199997
NMEA,$QZGSV,1,1,03,193,18,137,,194,47,150,,195,66,053,17*67
,-62167219199997
NMEA,$GAGSV,2,1,05,111,60,258,,112,54,027,,124,84,177,,125,37,318,*62
,-62167219199997
NMEA,$GAGSV,2,2,05,131,32,144,*6E
,-62167219199997
NMEA,$GPRMC,131736.50,V,3030.727320,N,11424.432720,E,000.0,000.0,230121,,E,N*05
,-62167219199997
Raw,1944159243,8600000000,18,0.0,-1295443065769778432,0.0,333.564095198152,-384.446402829791,0.0,4,1,0.0,0,0,10,0.0,-0.0,0.1,16,0.0,0.1,1.57542003E9,,,,0,,1,6.0,1.57542003E9
Raw,1944159243,8600000000,18,0.0,-1295443065769778432,0.0,333.564095198152,-384.446402829791,0.0,4,3,0.0,0,0,10,0.0,-0.0,0.1,16,0.0,0.1,1.57542003E9,,,,0,,1,6.0,1.57542003E9
Raw,1944159244,8600000000,18,0.0,-1295443065769778432,0.0,333.564095198152,-384.446402829791,0.0,4,6,0.0,0,0,10,0.0,-0.0,0.1,16,0.0,0.1,1.57542003E9,,,,0,,1,6.0,1.57542003E9
Raw,1944159244,8600000000,18,0.0,-1295443065769778432,0.0,333.564095198152,-384.446402829791,0.0,4,7,0.0,0,0,10,0.0,-0.0,0.1,16,0.0,0.1,1.57542003E9,,,,0,,1,6.0,1.57542003E9
Raw,1944159244,8600000000,18,0.0,-1295443065769778432,0.0,333.564095198152,-384.446402829791,0.0,4,8,0.0,0,0,10,0.0,-0.0,0.1,16,0.0,0.1,1.57542003E9,,,,0,,1,6.0,1.57542003E9
Raw,1944159244,8600000000,18,0.0,-1295443065769778432,0.0,333.564095198152,-384.446402829791,0.0,4,11,0.0,0,0,10,0.0,-0.0,0.1,16,0.0,0.1,1.57542003E9,,,,0,,1,6.0,1.57542003E9
Raw,1944159244,8600000000,18,0.0,-1295443065769778432,0.0,333.564095198152,-384.446402829791,0.0,4,14,0.0,0,0,10,0.0,-0.0,0.1,16,0.0,0.1,1.57542003E9,,,,0,,1,6.0,1.57542003E9
Raw,1944159244,8600000000,18,0.0,-1295443065769778432,0.0,333.564095198152,-384.446402829791,0.0,4,21,0.0,0,0,10,0.0,-0.0,0.1,16,0.0,0.1,1.57542003E9,,,,0,,1,6.0,1.57542003E9
Raw,1944159244,8600000000,18,0.0,-1295443065769778432,0.0,333.564095198152,-384.446402829791,0.0,4,22,0.0,0,0,10,0.0,-0.0,0.1,16,0.0,0.1,1.57542003E9,,,,0,,1,6.0,1.57542003E9
Raw,1944159244,8600000000,18,0.0,-1295443065769778432,0.0,333.564095198152,-384.446402829791,0.0,4,2,0.0,0,0,10,0.0,-0.0,0.1,16,0.0,0.1,1.59975002E9,,,,0,,3,6.0,1.59975002E9
Raw,1944159244,8600000000,18,0.0,-1295443065769778432,0.0,333.564095198152,-384.446402829791,0.0,4,3,0.0,0,0,10,0.0,-0.0,0.1,16,0.0,0.1,1.60481254E9,,,,0,,3,6.0,1.60481254E9
Raw,1944159245,8600000000,18,0.0,-1295443065769778432,0.0,333.564095198152,-384.446402829791,0.0,4,15,0.0,0,0,10,0.0,-0.0,0.1,16,0.0,0.1,1.602E9,,,,0,,3,6.0,1.602E9
Raw,1944159245,8600000000,18,0.0,-1295443065769778432,0.0,333.564095198152,-384.446402829791,0.0,4,16,0.0,0,0,10,0.0,-0.0,0.1,16,0.0,0.1,1.60143744E9,,,,0,,3,6.0,1.60143744E9
Raw,1944159245,8600000000,18,0.0,-1295443065769778432,0.0,333.564095198152,-384.446402829791,0.0,4,17,0.0,0,0,10,0.0,-0.0,0.1,16,0.0,0.1,1.60424998E9,,,,0,,3,6.0,1.60424998E9
Raw,1944159245,8600000000,18,0.0,-1295443065769778432,0.0,333.564095198152,-384.446402829791,0.0,4,18,0.0,0,0,10,0.0,-0.0,0.1,16,0.0,0.1,1.60031245E9,,,,0,,3,6.0,1.60031245E9
Raw,1944159245,8600000000,18,0.0,-1295443065769778432,0.0,333.564095198152,-384.446402829791,0.0,4,19,0.0,0,0,10,0.0,-0.0,0.1,16,0.0,0.1,1.60368755E9,,,,0,,3,6.0,1.60368755E9
Raw,1944159245,8600000000,18,0.0,-1295443065769778432,0.0,333.564095198152,-384.446402829791,0.0,4,20,0.0,0,0,10,0.0,-0.0,0.1,16,0.0,0.1,1.60312499E9,,,,0,,3,6.0,1.60312499E9
Raw,1944159245,8600000000,18,0.0,-1295443065769778432,0.0,333.564095198152,-384.446402829791,0.0,4,7,0.0,0,0,10,0.0,-0.0,0.1,16,0.0,0.1,1.56109798E9,,,,0,,5,6.0,1.56109798E9
Raw,1944159245,8600000000,18,0.0,-1295443065769778432,0.0,333.564095198152,-384.446402829791,0.0,4,10,0.0,0,0,10,0.0,-0.0,0.1,16,0.0,0.1,1.56109798E9,,,,0,,5,6.0,1.56109798E9
Raw,1944159246,8600000000,18,0.0,-1295443065769778432,0.0,333.564095198152,-384.446402829791,0.0,4,13,0.0,0,0,10,0.0,-0.0,0.1,16,0.0,0.1,1.56109798E9,,,,0,,5,6.0,1.56109798E9
Raw,1944159246,8600000000,18,0.0,-1295443065769778432,0.0,333.564095198152,-384.446402829791,0.0,4,19,0.0,0,0,10,0.0,-0.0,0.1,16,0.0,0.1,1.56109798E9,,,,0,,5,6.0,1.56109798E9
Raw,1944159246,8600000000,18,0.0,-1295443065769778432,0.0,333.564095198152,-384.446402829791,0.0,4,22,0.0,0,0,10,0.0,-0.0,0.1,16,0.0,0.1,1.56109798E9,,,,0,,5,6.0,1.56109798E9
Raw,1944159246,8600000000,18,0.0,-1295443065769778432,0.0,333.564095198152,-384.446402829791,0.0,4,34,0.0,0,0,10,0.0,-0.0,0.1,16,0.0,0.1,1.56109798E9,,,,0,,5,6.0,1.56109798E9
Raw,1944159246,8600000000,18,0.0,-1295443065769778432,0.0,333.564095198152,-384.446402829791,0.0,4,35,0.0,0,0,10,0.0,-0.0,0.1,16,0.0,0.1,1.56109798E9,,,,0,,5,6.0,1.56109798E9
Raw,1944159246,8600000000,18,0.0,-1295443065769778432,0.0,333.564095198152,-384.446402829791,0.0,4,11,0.0,0,0,10,0.0,-0.0,0.1,16,0.0,0.1,1.57542003E9,,,,0,,6,6.0,1.57542003E9
Raw,1944159246,8600000000,18,0.0,-1295443065769778432,0.0,333.564095198152,-384.446402829791,0.0,4,12,0.0,0,0,10,0.0,-0.0,0.1,16,0.0,0.1,1.57542003E9,,,,0,,6,6.0,1.57542003E9
Raw,1944159246,8600000000,18,0.0,-1295443065769778432,0.0,333.564095198152,-384.446402829791,0.0,4,24,0.0,0,0,10,0.0,-0.0,0.1,16,0.0,0.1,1.57542003E9,,,,0,,6,6.0,1.57542003E9
Raw,1944159246,8600000000,18,0.0,-1295443065769778432,0.0,333.564095198152,-384.446402829791,0.0,4,25,0.0,0,0,10,0.0,-0.0,0.1,16,0.0,0.1,1.57542003E9,,,,0,,6,6.0,1.57542003E9
Raw,1944159247,8600000000,18,0.0,-1295443065769778432,0.0,333.564095198152,-384.446402829791,0.0,4,31,0.0,0,0,10,0.0,-0.0,0.1,16,0.0,0.1,1.57542003E9,,,,0,,6,6.0,1.57542003E9
Raw,1944159247,8600000000,18,0.0,-1295443065769778432,0.0,333.564095198152,-384.446402829791,0.0,4,193,0.0,0,0,10,0.0,-0.0,0.1,16,0.0,0.1,1.57542003E9,,,,0,,4,6.0,1.57542003E9
Raw,1944159247,8600000000,18,0.0,-1295443065769778432,0.0,333.564095198152,-384.446402829791,0.0,4,194,0.0,0,0,10,0.0,-0.0,0.1,16,0.0,0.1,1.57542003E9,,,,0,,4,6.0,1.57542003E9
Raw,1944159247,8600000000,18,0.0,-1295443065769778432,0.0,333.564095198152,-384.446402829791,0.0,4,1,0.0,0,0,10,0.0,-0.0,0.1,16,0.0,0.1,1.56109798E9,,,,0,,5,6.0,1.56109798E9
Raw,1944159247,8600000000,18,0.0,-1295443065769778432,0.0,333.564095198152,-384.446402829791,0.0,4,2,0.0,0,0,10,0.0,-0.0,0.1,16,0.0,0.1,1.56109798E9,,,,0,,5,6.0,1.56109798E9
Raw,1944159247,8600000000,18,0.0,-1295443065769778432,0.0,333.564095198152,-384.446402829791,0.0,4,3,0.0,0,0,10,0.0,-0.0,0.1,16,0.0,0.1,1.56109798E9,,,,0,,5,6.0,1.56109798E9
Raw,1944159247,8600000000,18,0.0,-1295443065769778432,0.0,333.564095198152,-384.446402829791,0.0,4,4,0.0,0,0,10,0.0,-0.0,0.1,16,0.0,0.1,1.56109798E9,,,,0,,5,6.0,1.56109798E9
Raw,1944159247,8600000000,18,0.0,-1295443065769778432,0.0,333.564095198152,-384.446402829791,0.0,4,5,0.0,0,0,10,0.0,-0.0,0.1,16,0.0,0.1,1.56109798E9,,,,0,,5,6.0,1.56109798E9
Raw,1944159248,8600000000,18,0.0,-1295443065769778432,0.0,333.564095198152,-384.446402829791,0.0,4,19,0.0,3,12264511,7,26.0,-512.600052616551,0.05,18,-0.0637802937805642,0.1,1.57542003E9,,,,2,,1,6.0,1.57542003E9
Raw,1944159248,8600000000,18,0.0,-1295443065769778432,0.0,333.564095198152,-384.446402829791,0.0,4,30,0.0,3,15827745,7,26.0,345.1418108862981,0.05,18,-0.009431483830243155,0.1,1.57542003E9,,,,2,,1,6.0,1.57542003E9
Raw,1944159248,8600000000,18,0.0,-1295443065769778432,0.0,333.564095198152,-384.446402829791,0.0,4,9,0.0,35,18589196,31,27.0,-707.2302199543155,0.030000001144409223,18,-0.10603616915973191,0.1,1.60087501E9,,,,1,,3,6.0,1.60087501E9
Raw,1944159248,8600000000,18,0.0,-1295443065769778432,0.0,333.564095198152,-384.446402829791,0.0,4,12,0.0,16399,566260291228721,5,34.0,-370.8642818202463,0.02,18,-0.08172956007410906,0.1,1.56109798E9,,,,2,,5,6.0,1.56109798E9
Raw,1944159248,8600000000,18,0.0,-1295443065769778432,0.0,333.564095198152,-384.446402829791,0.0,4,28,0.0,3,19758035,27,17.0,-421.7987932141245,0.30000000715255754,18,-0.03546418400229713,0.1,1.57542003E9,,,,2,,1,6.0,1.57542003E9
Raw,1944159248,8600000000,18,0.0,-1295443065769778432,0.0,333.564095198152,-384.446402829791,0.0,4,8,0.0,3,7987062,101,19.0,-191.13538572142022,0.5,18,0.020729667081891053,0.1,1.56109798E9,,,,1,,5,6.0,1.56109798E9
Raw,1944159248,8600000000,18,0.0,-1295443065769778432,0.0,333.564095198152,-384.446402829791,0.0,4,24,0.0,3,12329324,6,29.0,-308.2608608734581,0.030000001144409223,18,0.001351281491377587,0.1,1.56109798E9,,,,2,,5,6.0,1.56109798E9
Raw,1944159249,8600000000,18,0.0,-1295443065769778432,0.0,333.564095198152,-384.446402829791,0.0,4,26,0.0,3,15847978,28,20.0,237.15628108428953,0.05,18,2.6632444429285546E-4,0.1,1.56109798E9,,,,2,,5,6.0,1.56109798E9
Raw,1944159249,8600000000,18,0.0,-1295443065769778432,0.0,333.564095198152,-384.446402829791,0.0,4,195,0.0,3,18241124,42,17.0,-102.63933910970488,0.30000000715255754,18,-0.12361160516965249,0.1,1.57542003E9,,,,1,,4,6.0,1.57542003E9
Raw,1944159249,8600000000,18,0.0,-1295443065769778432,0.0,333.564095198152,-384.446402829791,0.0,4,17,0.0,3,16147721,125,13.0,-319.6183001408352,0.5,18,-0.05777390451046384,0.1,1.57542003E9,,,,1,,1,6.0,1.57542003E9
Fix,gps,30.512050,114.406555,127.022716,0.797185,41.000000,1611407857369
NMEA,$GPGGA,131737.37,3030.723004,N,11424.393311,E,1,9,2.2,127.0,M,,M,,*41
,1611407857371
NMEA,$GNGSA,A,3,17,19,28,30,208,212,224,226,73,195,,,5.1,2.2,4.6*1D
,1611407857371
NMEA,$GPGSA,A,3,17,19,28,30,,,,,,,,,5.1,2.2,4.6*33
,1611407857371
NMEA,$GPGSA,A,3,,,,,,,,,,,,,5.1,2.2,4.6,8*20
,1611407857371
NMEA,$GLGSA,A,3,73,,,,,,,,,,,,5.1,2.2,4.6*2C
,1611407857371
NMEA,$BDGSA,A,3,208,212,224,226,,,,,,,,,5.1,2.2,4.6*2C
,1611407857371
NMEA,$BDGSA,A,3,,,,,,,,,,,,,5.1,2.2,4.6,7*3E
,1611407857371
NMEA,$GAGSA,A,3,,,,,,,,,,,,,5.1,2.2,4.6*25
,1611407857371
NMEA,$GAGSA,A,3,,,,,,,,,,,,,5.1,2.2,4.6,1*38
,1611407857371
NMEA,$QZGSA,A,3,195,,,,,,,,,,,,5.1,2.2,4.6*15
,1611407857371
NMEA,$PJGSA,A,3,,,,,,,,,,,,,5.1,2.2,4.6*39
,1611407857371
NMEA,$GPGSV,4,1,13,01,46,037,,03,38,115,,06,20,225,,07,18,186,*74
,1611407857371
NMEA,$GPGSV,4,2,13,08,11,077,,11,23,051,,14,73,340,,17,41,304,15*76
,1611407857371
NMEA,$GPGSV,4,3,13,19,24,284,26,21,24,042,,22,36,081,,28,63,334,17*7A
,1611407857371
NMEA,$GPGSV,4,4,13,30,37,218,24*41
,1611407857371
NMEA,$GLGSV,3,1,09,66,06,051,,67,09,099,,73,34,324,27,79,27,165,*6E
,1611407857371
NMEA,$GLGSV,3,2,09,80,74,242,,81,05,046,,82,43,012,,83,51,294,*62
,1611407857371
NMEA,$GLGSV,3,3,09,84,08,246,*58
,1611407857371
NMEA,$BDGSV,4,1,16,201,42,130,,202,40,228,,203,54,187,,204,30,115,*6F
,1611407857371
NMEA,$BDGSV,4,2,16,205,20,249,,207,77,094,,208,73,207,18,210,75,334,*6C
,1611407857371
NMEA,$BDGSV,4,3,16,212,35,275,33,213,45,214,,219,17,084,,222,16,136,*68
,1611407857371
NMEA,$BDGSV,4,4,16,224,45,294,29,226,55,209,20,234,12,262,,235,45,037,*60
,1611407857371
NMEA,$QZGSV,1,1,03,193,18,137,,194,47,150,,195,66,053,18*68
,1611407857371
NMEA,$GAGSV,2,1,05,111,60,258,,112,54,027,,124,84,177,,125,37,318,*62
,1611407857371
NMEA,$GAGSV,2,2,05,131,32,144,*6E
,1611407857371
NMEA,$GPRMC,131737.37,A,3030.723004,N,11424.393311,E,001.5,031.0,230121,,E,A*10
,1611407857371
Raw,1944160257,9600000000,18,0.0,-1295443065769779456,0.0,333.564095198152,-387.4750273486426,0.0,4,1,0.0,0,0,10,0.0,-0.0,0.1,16,0.0,0.1,1.57542003E9,,,,0,,1,6.0,1.57542003E9
Raw,1944160258,9600000000,18,0.0,-1295443065769779456,0.0,333.564095198152,-387.4750273486426,0.0,4,3,0.0,0,0,10,0.0,-0.0,0.1,16,0.0,0.1,1.57542003E9,,,,0,,1,6.0,1.57542003E9
Raw,1944160258,9600000000,18,0.0,-1295443065769779456,0.0,333.564095198152,-387.4750273486426,0.0,4,6,0.0,0,0,10,0.0,-0.0,0.1,16,0.0,0.1,1.57542003E9,,,,0,,1,6.0,1.57542003E9
Raw,1944160258,9600000000,18,0.0,-1295443065769779456,0.0,333.564095198152,-387.4750273486426,0.0,4,7,0.0,0,0,10,0.0,-0.0,0.1,16,0.0,0.1,1.57542003E9,,,,0,,1,6.0,1.57542003E9
Raw,1944160258,9600000000,18,0.0,-1295443065769779456,0.0,333.564095198152,-387.4750273486426,0.0,4,8,0.0,0,0,10,0.0,-0.0,0.1,16,0.0,0.1,1.57542003E9,,,,0,,1,6.0,1.57542003E9
Raw,1944160258,9600000000,18,0.0,-1295443065769779456,0.0,333.564095198152,-387.4750273486426,0.0,4,11,0.0,0,0,10,0.0,-0.0,0.1,16,0.0,0.1,1.57542003E9,,,,0,,1,6.0,1.57542003E9
Raw,1944160258,9600000000,18,0.0,-1295443065769779456,0.0,333.564095198152,-387.4750273486426,0.0,4,14,0.0,0,0,10,0.0,-0.0,0.1,16,0.0,0.1,1.57542003E9,,,,0,,1,6.0,1.57542003E9
Raw,1944160258,9600000000,18,0.0,-1295443065769779456,0.0,333.564095198152,-387.4750273486426,0.0,4,21,0.0,0,0,10,0.0,-0.0,0.1,16,0.0,0.1,1.57542003E9,,,,0,,1,6.0,1.57542003E9
Raw,1944160258,9600000000,18,0.0,-1295443065769779456,0.0,333.564095198152,-387.4750273486426,0.0,4,22,0.0,0,0,10,0.0,-0.0,0.1,16,0.0,0.1,1.57542003E9,,,,0,,1,6.0,1.57542003E9
Raw,1944160259,9600000000,18,0.0,-1295443065769779456,0.0,333.564095198152,-387.4750273486426,0.0,4,2,0.0,0,0,10,0.0,-0.0,0.1,16,0.0,0.1,1.59975002E9,,,,0,,3,6.0,1.59975002E9
Raw,1944160259,9600000000,18,0.0,-1295443065769779456,0.0,333.564095198152,-387.4750273486426,0.0,4,3,0.0,0,0,10,0.0,-0.0,0.1,16,0.0,0.1,1.60481254E9,,,,0,,3,6.0,1.60481254E9
Raw,1944160259,9600000000,18,0.0,-1295443065769779456,0.0,333.564095198152,-387.4750273486426,0.0,4,15,0.0,0,0,10,0.0,-0.0,0.1,16,0.0,0.1,1.602E9,,,,0,,3,6.0,1.602E9
Raw,1944160259,9600000000,18,0.0,-1295443065769779456,0.0,333.564095198152,-387.4750273486426,0.0,4,16,0.0,0,0,10,0.0,-0.0,0.1,16,0.0,0.1,1.60143744E9,,,,0,,3,6.0,1.60143744E9
Raw,1944160259,9600000000,18,0.0,-1295443065769779456,0.0,333.564095198152,-387.4750273486426,0.0,4,17,0.0,0,0,10,0.0,-0.0,0.1,16,0.0,0.1,1.60424998E9,,,,0,,3,6.0,1.60424998E9
Raw,1944160259,9600000000,18,0.0,-1295443065769779456,0.0,333.564095198152,-387.4750273486426,0.0,4,18,0.0,0,0,10,0.0,-0.0,0.1,16,0.0,0.1,1.60031245E9,,,,0,,3,6.0,1.60031245E9
Raw,1944160259,9600000000,18,0.0,-1295443065769779456,0.0,333.564095198152,-387.4750273486426,0.0,4,19,0.0,0,0,10,0.0,-0.0,0.1,16,0.0,0.1,1.60368755E9,,,,0,,3,6.0,1.60368755E9
Raw,1944160259,9600000000,18,0.0,-1295443065769779456,0.0,333.564095198152,-387.4750273486426,0.0,4,20,0.0,0,0,10,0.0,-0.0,0.1,16,0.0,0.1,1.60312499E9,,,,0,,3,6.0,1.60312499E9
Raw,1944160260,9600000000,18,0.0,-1295443065769779456,0.0,333.564095198152,-387.4750273486426,0.0,4,7,0.0,0,0,10,0.0,-0.0,0.1,16,0.0,0.1,1.56109798E9,,,,0,,5,6.0,1.56109798E9
Raw,1944160260,9600000000,18,0.0,-1295443065769779456,0.0,333.564095198152,-387.4750273486426,0.0,4,10,0.0,0,0,10,0.0,-0.0,0.1,16,0.0,0.1,1.56109798E9,,,,0,,5,6.0,1.56109798E9
Raw,1944160260,9600000000,18,0.0,-1295443065769779456,0.0,333.564095198152,-387.4750273486426,0.0,4,13,0.0,0,0,10,0.0,-0.0,0.1,16,0.0,0.1,1.56109798E9,,,,0,,5,6.0,1.56109798E9
Raw,1944160260,9600000000,18,0.0,-1295443065769779456,0.0,333.564095198152,-387.4750273486426,0.0,4,19,0.0,0,0,10,0.0,-0.0,0.1,16,0.0,0.1,1.56109798E9,,,,0,,5,6.0,1.56109798E9
Raw,1944160260,9600000000,18,0.0,-1295443065769779456,0.0,333.564095198152,-387.4750273486426,0.0,4,22,0.0,0,0,10,0.0,-0.0,0.1,16,0.0,0.1,1.56109798E9,,,,0,,5,6.0,1.56109798E9
Raw,1944160261,9600000000,18,0.0,-1295443065769779456,0.0,333.564095198152,-387.4750273486426,0.0,4,34,0.0,0,0,10,0.0,-0.0,0.1,16,0.0,0.1,1.56109798E9,,,,0,,5,6.0,1.56109798E9
Raw,1944160261,9600000000,18,0.0,-1295443065769779456,0.0,333.564095198152,-387.4750273486426,0.0,4,35,0.0,0,0,10,0.0,-0.0,0.1,16,0.0,0.1,1.56109798E9,,,,0,,5,6.0,1.56109798E9
Raw,1944160261,9600000000,18,0.0,-1295443065769779456,0.0,333.564095198152,-387.4750273486426,0.0,4,11,0.0,0,0,10,0.0,-0.0,0.1,16,0.0,0.1,1.57542003E9,,,,0,,6,6.0,1.57542003E9
Raw,1944160261,9600000000,18,0.0,-1295443065769779456,0.0,333.564095198152,-387.4750273486426,0.0,4,12,0.0,0,0,10,0.0,-0.0,0.1,16,0.0,0.1,1.57542003E9,,,,0,,6,6.0,1.57542003E9
Raw,1944160261,9600000000,18,0.0,-1295443065769779456,0.0,333.564095198152,-387.4750273486426,0.0,4,24,0.0,0,0,10,0.0,-0.0,0.1,16,0.0,0.1,1.57542003E9,,,,0,,6,6.0,1.57542003E9
Raw,1944160261,9600000000,18,0.0,-1295443065769779456,0.0,333.564095198152,-387.4750273486426,0.0,4,25,0.0,0,0,10,0.0,-0.0,0.1,16,0.0,0.1,1.57542003E9,,,,0,,6,6.0,1.57542003E9
Raw,1944160261,9600000000,18,0.0,-1295443065769779456,0.0,333.564095198152,-387.4750273486426,0.0,4,31,0.0,0,0,10,0.0,-0.0,0.1,16,0.0,0.1,1.57542003E9,,,,0,,6,6.0,1.57542003E9
Raw,1944160261,9600000000,18,0.0,-1295443065769779456,0.0,333.564095198152,-387.4750273486426,0.0,4,193,0.0,0,0,10,0.0,-0.0,0.1,16,0.0,0.1,1.57542003E9,,,,0,,4,6.0,1.57542003E9
Raw,1944160262,9600000000,18,0.0,-1295443065769779456,0.0,333.564095198152,-387.4750273486426,0.0,4,194,0.0,0,0,10,0.0,-0.0,0.1,16,0.0,0.1,1.57542003E9,,,,0,,4,6.0,1.57542003E9
Raw,1944160262,9600000000,18,0.0,-1295443065769779456,0.0,333.564095198152,-387.4750273486426,0.0,4,1,0.0,0,0,10,0.0,-0.0,0.1,16,0.0,0.1,1.56109798E9,,,,0,,5,6.0,1.56109798E9
Raw,1944160262,9600000000,18,0.0,-1295443065769779456,0.0,333.564095198152,-387.4750273486426,0.0,4,2,0.0,0,0,10,0.0,-0.0,0.1,16,0.0,0.1,1.56109798E9,,,,0,,5,6.0,1.56109798E9
Raw,1944160262,9600000000,18,0.0,-1295443065769779456,0.0,333.564095198152,-387.4750273486426,0.0,4,3,0.0,0,0,10,0.0,-0.0,0.1,16,0.0,0.1,1.56109798E9,,,,0,,5,6.0,1.56109798E9
Raw,1944160262,9600000000,18,0.0,-1295443065769779456,0.0,333.564095198152,-387.4750273486426,0.0,4,4,0.0,0,0,10,0.0,-0.0,0.1,16,0.0,0.1,1.56109798E9,,,,0,,5,6.0,1.56109798E9
Raw,1944160262,9600000000,18,0.0,-1295443065769779456,0.0,333.564095198152,-387.4750273486426,0.0,4,5,0.0,0,0,10,0.0,-0.0,0.1,16,0.0,0.1,1.56109798E9,,,,0,,5,6.0,1.56109798E9
Raw,1944160262,9600000000,18,0.0,-1295443065769779456,0.0,333.564095198152,-387.4750273486426,0.0,4,19,0.0,16399,566275292266222,7,26.0,-513.0375763107006,0.05,17,-512.9149150538115,0.1,1.57542003E9,,,,2,,1,6.0,1.57542003E9
Raw,1944160262,9600000000,18,0.0,-1295443065769779456,0.0,333.564095198152,-387.4750273486426,0.0,4,30,0.0,16399,566275295826594,7,24.0,345.4137541649654,0.05,17,345.2929419142411,0.1,1.57542003E9,,,,2,,1,6.0,1.57542003E9
Raw,1944160263,9600000000,18,0.0,-1295443065769779456,0.0,333.564095198152,-387.4750273486426,0.0,4,9,0.0,35,18591572,21,27.0,-708.2510026406788,0.030000001144409223,17,1112867.7536351176,0.1,1.60087501E9,,,,2,,3,6.0,1.60087501E9
Raw,1944160263,9600000000,18,0.0,-1295443065769779456,0.0,333.564095198152,-387.4750273486426,0.0,4,12,0.0,16399,566261291229960,5,33.0,-370.77239661826104,0.02,17,-370.94884365272003,0.1,1.56109798E9,,,,2,,5,6.0,1.56109798E9
Raw,1944160263,9600000000,18,0.0,-1295443065769779456,0.0,333.564095198152,-387.4750273486426,0.0,4,28,0.0,3,19759445,27,17.0,-422.18973265839173,0.30000000715255754,17,-421.92021968498864,0.1,1.57542003E9,,,,2,,1,6.0,1.57542003E9
Raw,1944160263,9600000000,18,0.0,-1295443065769779456,0.0,333.564095198152,-387.4750273486426,0.0,4,8,0.0,3,7987691,101,18.0,-191.4020267550116,0.5,17,-190.91310559615172,0.1,1.56109798E9,,,,1,,5,6.0,1.56109798E9
Raw,1944160263,9600000000,18,0.0,-1295443065769779456,0.0,333.564095198152,-387.4750273486426,0.0,4,24,0.0,3,12330353,6,29.0,-308.39503106106275,0.030000001144409223,17,-308.336388360606,0.1,1.56109798E9,,,,2,,5,6.0,1.56109798E9
Raw,1944160263,9600000000,18,0.0,-1295443065769779456,0.0,333.564095198152,-387.4750273486426,0.0,4,26,0.0,3,15847194,9,20.0,236.4503933355231,0.30000000715255754,17,236.63221906404826,0.1,1.56109798E9,,,,2,,5,6.0,1.56109798E9
Raw,1944160263,9600000000,18,0.0,-1295443065769779456,0.0,333.564095198152,-387.4750273486426,0.0,4,195,0.0,3,18241469,27,18.0,-102.77142252928681,0.30000000715255754,17,-102.94254896992605,0.1,1.57542003E9,,,,2,,4,6.0,1.57542003E9
Raw,1944160263,9600000000,18,0.0,-1295443065769779456,0.0,333.564095198152,-387.4750273486426,0.0,4,17,0.0,3,16148788,52,15.0,-319.1437332633221,0.5,17,-319.43214049091506,0.1,1.57542003E9,,,,1,,1,6.0,1.57542003E9
Fix,gps,30.512055,114.406460,148.465298,0.642693,46.000000,1611407858369
NMEA,$GPGGA,131738.37,3030.723322,N,11424.387622,E,1,10,2.8,148.5,M,,M,,*77
,1611407858371
NMEA,$GNGSA,A,3,17,19,28,30,208,212,224,226,73,83,111,125,6.1,2.8,5.5*27
,1611407858371
NMEA,$GPGSA,A,3,17,19,28,30,,,,,,,,,6.1,2.8,5.5*38
,1611407858371
NMEA,$GPGSA,A,3,,,,,,,,,,,,,6.1,2.8,5.5,8*2B
,1611407858371
NMEA,$GLGSA,A,3,73,83,,,,,,,,,,,6.1,2.8,5.5*2C
,1611407858371
NMEA,$BDGSA,A,3,208,212,224,226,,,,,,,,,6.1,2.8,5.5*27
,1611407858371
NMEA,$BDGSA,A,3,,,,,,,,,,,,,6.1,2.8,5.5,7*35
,1611407858371
NMEA,$GAGSA,A,3,111,125,,,,,,,,,,,6.1,2.8,5.5*29
,1611407858371
NMEA,$GAGSA,A,3,,,,,,,,,,,,,6.1,2.8,5.5,1*33
,1611407858371
NMEA,$QZGSA,A,3,195,,,,,,,,,,,,6.1,2.8,5.5*1E
,1611407858371
NMEA,$PJGSA,A,3,,,,,,,,,,,,,6.1,2.8,5.5*32
,1611407858371
NMEA,$GPGSV,4,1,13,01,46,037,,03,38,115,,06,20,225,,07,18,186,*74
,1611407858371
NMEA,$GPGSV,4,2,13,08,11,077,,11,23,051,,14,73,340,,17,41,304,18*7B
,1611407858371
NMEA,$GPGSV,4,3,13,19,24,284,24,21,24,042,,22,36,081,,28,63,334,19*76
,1611407858371
NMEA,$GPGSV,4,4,13,30,37,218,24*41
,1611407858371
NMEA,$GLGSV,3,1,09,66,06,051,,67,09,099,,73,34,324,25,79,27,165,*6C
,1611407858371
NMEA,$GLGSV,3,2,09,80,74,242,,81,05,046,,82,43,012,,83,51,294,19*6A
,1611407858371
NMEA,$GLGSV,3,3,09,84,08,246,*58
,1611407858371
NMEA,$BDGSV,4,1,16,201,42,130,,202,40,228,,203,54,187,,204,30,115,*6F
,1611407858371
NMEA,$BDGSV,4,2,16,205,20,249,,207,77,094,,208,73,207,16,210,75,334,*62
,1611407858371
NMEA,$BDGSV,4,3,16,212,35,275,29,213,45,214,,219,17,084,,222,16,136,*63
,1611407858371
NMEA,$BDGSV,4,4,16,224,45,294,28,226,55,209,22,234,12,262,,235,45,037,*63
,1611407858371
NMEA,$QZGSV,1,1,03,193,18,137,,194,47,150,,195,66,053,17*67
,1611407858371
NMEA,$GAGSV,2,1,07,111,60,258,23,112,54,027,,119,05,,,121,05,,*68
,1611407858371
NMEA,$GAGSV,2,2,07,124,84,177,,125,37,318,24,131,32,144,*68
,1611407858371
NMEA,$GPRMC,131738.37,A,3030.723322,N,11424.387622,E,001.2,066.5,230121,,E,A*18
,1611407858371
Raw,1944161243,10600000000,18,0.0,-1295443065769779712,0.0,333.564095198152,-387.5685522222885,0.0,4,1,0.0,0,0,10,0.0,-0.0,0.1,16,0.0,0.1,1.57542003E9,,,,0,,1,-1.0,1.57542003E9
Raw,1944161243,10600000000,18,0.0,-1295443065769779712,0.0,333.564095198152,-387.5685522222885,0.0,4,3,0.0,0,0,10,0.0,-0.0,0.1,16,0.0,0.1,1.57542003E9,,,,0,,1,-1.0,1.57542003E9
Raw,1944161243,10600000000,18,0.0,-1295443065769779712,0.0,333.564095198152,-387.5685522222885,0.0,4,6,0.0,0,0,10,0.0,-0.0,0.1,16,0.0,0.1,1.57542003E9,,,,0,,1,-1.0,1.57542003E9
Raw,1944161243,10600000000,18,0.0,-1295443065769779712,0.0,333.564095198152,-387.5685522222885,0.0,4,7,0.0,0,0,10,0.0,-0.0,0.1,16,0.0,0.1,1.57542003E9,,,,0,,1,-1.0,1.57542003E9
Raw,1944161244,10600000000,18,0.0,-1295443065769779712,0.0,333.564095198152,-387.5685522222885,0.0,4,8,0.0,0,0,10,0.0,-0.0,0.1,16,0.0,0.1,1.57542003E9,,,,0,,1,-1.0,1.57542003E9
Raw,1944161244,10600000000,18,0.0,-1295443065769779712,0.0,333.564095198152,-387.5685522222885,0.0,4,11,0.0,0,0,10,0.0,-0.0,0.1,16,0.0,0.1,1.57542003E9,,,,0,,1,-1.0,1.57542003E9
Raw,1944161244,10600000000,18,0.0,-1295443065769779712,0.0,333.564095198152,-387.5685522222885,0.0,4,14,0.0,0,0,10,0.0,-0.0,0.1,16,0.0,0.1,1.57542003E9,,,,0,,1,-1.0,1.57542003E9
Raw,1944161244,10600000000,18,0.0,-1295443065769779712,0.0,333.564095198152,-387.5685522222885,0.0,4,21,0.0,0,0,10,0.0,-0.0,0.1,16,0.0,0.1,1.57542003E9,,,,0,,1,-1.0,1.57542003E9
Raw,1944161244,10600000000,18,0.0,-1295443065769779712,0.0,333.564095198152,-387.5685522222885,0.0,4,22,0.0,0,0,10,0.0,-0.0,0.1,16,0.0,0.1,1.57542003E9,,,,0,,1,-1.0,1.57542003E9
Raw,1944161244,10600000000,18,0.0,-1295443065769779712,0.0,333.564095198152,-387.5685522222885,0.0,4,2,0.0,0,0,10,0.0,-0.0,0.1,16,0.0,0.1,1.59975002E9,,,,0,,3,-1.0,1.59975002E9
Raw,1944161244,10600000000,18,0.0,-1295443065769779712,0.0,333.564095198152,-387.5685522222885,0.0,4,3,0.0,0,0,10,0.0,-0.0,0.1,16,0.0,0.1,1.60481254E9,,,,0,,3,-1.0,1.60481254E9
Raw,1944161245,10600000000,18,0.0,-1295443065769779712,0.0,333.564095198152,-387.5685522222885,0.0,4,15,0.0,0,0,10,0.0,-0.0,0.1,16,0.0,0.1,1.602E9,,,,0,,3,-1.0,1.602E9
Raw,1944161245,10600000000,18,0.0,-1295443065769779712,0.0,333.564095198152,-387.5685522222885,0.0,4,16,0.0,0,0,10,0.0,-0.0,0.1,16,0.0,0.1,1.60143744E9,,,,0,,3,-1.0,1.60143744E9
Raw,1944161245,10600000000,18,0.0,-1295443065769779712,0.0,333.564095198152,-387.5685522222885,0.0,4,17,0.0,0,0,10,0.0,-0.0,0.1,16,0.0,0.1,1.60424998E9,,,,0,,3,-1.0,1.60424998E9
Raw,1944161245,10600000000,18,0.0,-1295443065769779712,0.0,333.564095198152,-387.5685522222885,0.0,4,18,0.0,0,0,10,0.0,-0.0,0.1,16,0.0,0.1,1.60031245E9,,,,0,,3,-1.0,1.60031245E9
Raw,1944161245,10600000000,18,0.0,-1295443065769779712,0.0,333.564095198152,-387.5685522222885,0.0,4,20,0.0,0,0,10,0.0,-0.0,0.1,16,0.0,0.1,1.60312499E9,,,,0,,3,-1.0,1.60312499E9
Raw,1944161245,10600000000,18,0.0,-1295443065769779712,0.0,333.564095198152,-387.5685522222885,0.0,4,7,0.0,0,0,10,0.0,-0.0,0.1,16,0.0,0.1,1.56109798E9,,,,0,,5,-1.0,1.56109798E9
Raw,1944161245,10600000000,18,0.0,-1295443065769779712,0.0,333.564095198152,-387.5685522222885,0.0,4,10,0.0,0,0,10,0.0,-0.0,0.1,16,0.0,0.1,1.56109798E9,,,,0,,5,-1.0,1.56109798E9
Raw,1944161245,10600000000,18,0.0,-1295443065769779712,0.0,333.564095198152,-387.5685522222885,0.0,4,13,0.0,0,0,10,0.0,-0.0,0.1,16,0.0,0.1,1.56109798E9,,,,0,,5,-1.0,1.56109798E9
Raw,1944161245,10600000000,18,0.0,-1295443065769779712,0.0,333.564095198152,-387.5685522222885,0.0,4,19,0.0,0,0,10,0.0,-0.0,0.1,16,0.0,0.1,1.56109798E9,,,,0,,5,-1.0,1.56109798E9
Raw,1944161245,10600000000,18,0.0,-1295443065769779712,0.0,333.564095198152,-387.5685522222885,0.0,4,22,0.0,0,0,10,0.0,-0.0,0.1,16,0.0,0.1,1.56109798E9,,,,0,,5,-1.0,1.56109798E9
Raw,1944161245,10600000000,18,0.0,-1295443065769779712,0.0,333.564095198152,-387.5685522222885,0.0,4,34,0.0,0,0,10,0.0,-0.0,0.1,16,0.0,0.1,1.56109798E9,,,,0,,5,-1.0,1.56109798E9
Raw,1944161246,10600000000,18,0.0,-1295443065769779712,0.0,333.564095198152,-387.5685522222885,0.0,4,35,0.0,0,0,10,0.0,-0.0,0.1,16,0.0,0.1,1.56109798E9,,,,0,,5,-1.0,1.56109798E9
Raw,1944161246,10600000000,18,0.0,-1295443065769779712,0.0,333.564095198152,-387.5685522222885,0.0,4,12,0.0,0,0,10,0.0,-0.0,0.1,16,0.0,0.1,1.57542003E9,,,,0,,6,-1.0,1.57542003E9
Raw,1944161246,10600000000,18,0.0,-1295443065769779712,0.0,333.564095198152,-387.5685522222885,0.0,4,24,0.0,0,0,10,0.0,-0.0,0.1,16,0.0,0.1,1.57542003E9,,,,0,,6,-1.0,1.57542003E9
Raw,1944161246,10600000000,18,0.0,-1295443065769779712,0.0,333.564095198152,-387.5685522222885,0.0,4,31,0.0,0,0,10,0.0,-0.0,0.1,16,0.0,0.1,1.57542003E9,,,,0,,6,-1.0,1.57542003E9
Raw,1944161246,10600000000,18,0.0,-1295443065769779712,0.0,333.564095198152,-387.5685522222885,0.0,4,193,0.0,0,0,10,0.0,-0.0,0.1,16,0.0,0.1,1.57542003E9,,,,0,,4,-1.0,1.57542003E9
Raw,1944161246,10600000000,18,0.0,-1295443065769779712,0.0,333.564095198152,-387.5685522222885,0.0,4,194,0.0,0,0,10,0.0,-0.0,0.1,16,0.0,0.1,1.57542003E9,,,,0,,4,-1.0,1.57542003E9
Raw,1944161246,10600000000,18,0.0,-1295443065769779712,0.0,333.564095198152,-387.5685522222885,0.0,4,1,0.0,0,0,10,0.0,-0.0,0.1,16,0.0,0.1,1.56109798E9,,,,0,,5,-1.0,1.56109798E9
Raw,1944161246,10600000000,18,0.0,-1295443065769779712,0.0,333.564095198152,-387.5685522222885,0.0,4,2,0.0,0,0,10,0.0,-0.0,0.1,16,0.0,0.1,1.56109798E9,,,,0,,5,-1.0,1.56109798E9
Raw,1944161246,10600000000,18,0.0,-1295443065769779712,0.0,333.564095198152,-387.5685522222885,0.0,4,3,0.0,0,0,10,0.0,-0.0,0.1,16,0.0,0.1,1.56109798E9,,,,0,,5,-1.0,1.56109798E9
Raw,1944161246,10600000000,18,0.0,-1295443065769779712,0.0,333.564095198152,-387.5685522222885,0.0,4,4,0.0,0,0,10,0.0,-0.0,0.1,16,0.0,0.1,1.56109798E9,,,,0,,5,-1.0,1.56109798E9
Raw,1944161246,10600000000,18,0.0,-1295443065769779712,0.0,333.564095198152,-387.5685522222885,0.0,4,5,0.0,0,0,10,0.0,-0.0,0.1,16,0.0,0.1,1.56109798E9,,,,0,,5,-1.0,1.56109798E9
Raw,1944161247,10600000000,18,0.0,-1295443065769779712,0.0,333.564095198152,-387.5685522222885,0.0,4,19,0.0,16399,566276292267939,7,24.0,-513.094120451044,0.05,17,-1025.9560134685553,0.1,1.57542003E9,,,,2,,1,-1.0,1.57542003E9
Raw,1944161247,10600000000,18,0.0,-1295443065769779712,0.0,333.564095198152,-387.5685522222885,0.0,4,30,0.0,16399,566276295825448,7,24.0,345.20145768541045,0.05,17,690.613923087613,0.1,1.57542003E9,,,,2,,1,-1.0,1.57542003E9
Raw,1944161247,10600000000,18,0.0,-1295443065769779712,0.0,333.564095198152,-387.5685522222885,0.0,4,9,0.0,35,18593936,28,25.0,-708.0708508567081,0.05,17,2225734.703958542,0.1,1.60087501E9,,,,2,,3,-1.0,1.60087501E9
Raw,1944161247,10600000000,18,0.0,-1295443065769779712,0.0,333.564095198152,-387.5685522222885,0.0,4,12,0.0,16399,566262291231198,6,29.0,-370.9038671080356,0.030000001144409223,17,-741.8512988285715,0.1,1.56109798E9,,,,2,,5,-1.0,1.56109798E9
Raw,1944161247,10600000000,18,0.0,-1295443065769779712,0.0,333.564095198152,-387.5685522222885,0.0,4,28,0.0,3,19760864,42,19.0,-422.4264377061758,0.30000000715255754,17,-844.2700441330333,0.1,1.57542003E9,,,,1,,1,-1.0,1.57542003E9
Raw,1944161247,10600000000,18,0.0,-1295443065769779712,0.0,333.564095198152,-387.5685522222885,0.0,4,8,0.0,3,7988314,16,16.0,-191.21663680290843,0.5,17,-382.2098057055704,0.1,1.56109798E9,,,,1,,5,-1.0,1.56109798E9
Raw,1944161247,10600000000,18,0.0,-1295443065769779712,0.0,333.564095198152,-387.5685522222885,0.0,4,24,0.0,3,12331381,6,28.0,-308.3605376185498,0.030000001144409223,17,-616.6755806424685,0.1,1.56109798E9,,,,2,,5,-1.0,1.56109798E9
Raw,1944161247,10600000000,18,0.0,-1295443065769779712,0.0,333.564095198152,-387.5685522222885,0.0,4,26,0.0,3,15846411,7,22.0,236.7155654662923,0.05,17,473.1641830856921,0.1,1.56109798E9,,,,2,,5,-1.0,1.56109798E9
Raw,1944161247,10600000000,18,0.0,-1295443065769779712,0.0,333.564095198152,-387.5685522222885,0.0,4,195,0.0,3,18241825,81,17.0,-103.23760446080507,0.30000000715255754,17,-205.8851017905924,0.1,1.57542003E9,,,,0,,4,-1.0,1.57542003E9
Raw,1944161247,10600000000,18,0.0,-1295443065769779712,0.0,333.564095198152,-387.5685522222885,0.0,4,17,0.0,3,16149848,27,18.0,-318.8702499522212,0.30000000715255754,17,-638.3795398728832,0.1,1.57542003E9,,,,2,,1,-1.0,1.57542003E9
Raw,1944161248,10600000000,18,0.0,-1295443065769779712,0.0,333.564095198152,-387.5685522222885,0.0,4,19,0.0,35,2193133,52,19.0,-161.924246369054,0.5,16,0.0,0.1,1.60368755E9,,,,0,,3,-1.0,1.60368755E9
Raw,1944161248,10600000000,18,0.0,-1295443065769779712,0.0,333.564095198152,-387.5685522222885,0.0,4,11,0.0,3072,96511082,10,23.0,-257.74754245183385,0.1,16,0.0,0.1,1.57542003E9,,,,0,,6,-1.0,1.57542003E9
Raw,1944161248,10600000000,18,0.0,-1295443065769779712,0.0,333.564095198152,-387.5685522222885,0.0,4,25,0.0,3072,84833789,10,24.0,-530.5929920846904,0.1,16,0.0,0.1,1.57542003E9,,,,0,,6,-1.0,1.57542003E9
NMEA,$GPGGA,131739.37,3030.723322,N,11424.387622,E,0,,2.8,148.5,M,,M,,*76
,-62167219199998
NMEA,$GNGSA,A,1,,,,,,,,,,,,,6.1,2.8,5.5*23
,-62167219199998
NMEA,$GPGSA,A,1,,,,,,,,,,,,,6.1,2.8,5.5*3D
,-62167219199998
NMEA,$GPGSA,A,1,,,,,,,,,,,,,6.1,2.8,5.5,8*29
,-62167219199998
NMEA,$GLGSA,A,1,,,,,,,,,,,,,6.1,2.8,5.5*21
,-62167219199998
NMEA,$BDGSA,A,1,,,,,,,,,,,,,6.1,2.8,5.5*2C
,-62167219199998
NMEA,$BDGSA,A,1,,,,,,,,,,,,,6.1,2.8,5.5,7*37
,-62167219199998
NMEA,$GAGSA,A,1,,,,,,,,,,,,,6.1,2.8,5.5*2C
,-62167219199998
NMEA,$GAGSA,A,1,,,,,,,,,,,,,6.1,2.8,5.5,1*31
,-62167219199998
NMEA,$QZGSA,A,1,,,,,,,,,,,,,6.1,2.8,5.5*21
,-62167219199998
NMEA,$PJGSA,A,1,,,,,,,,,,,,,6.1,2.8,5.5*30
,-62167219199998
NMEA,$GPGSV,4,1,13,01,46,037,,03,38,115,,06,20,225,17,07,18,186,17*74
,-62167219199998
NMEA,$GPGSV,4,2,13,08,11,077,17,11,23,051,,14,73,340,,17,41,304,30*77
,-62167219199998
NMEA,$GPGSV,4,3,13,19,24,284,28,21,24,042,17,22,36,081,18,28,63,334,20*7F
,-62167219199998
NMEA,$GPGSV,4,4,13,30,37,218,29*4C
,-62167219199998
NMEA,$GLGSV,3,1,09,66,06,051,,67,09,099,,73,34,324,25,79,27,165,*6C
,-62167219199998
NMEA,$GLGSV,3,2,09,80,74,242,,81,05,046,,82,42,012,,83,51,294,21*60
,-62167219199998
NMEA,$GLGSV,3,3,09,84,08,246,*58
,-62167219199998
NMEA,$BDGSV,4,1,16,201,42,130,,202,40,228,,203,54,187,,204,30,115,*6F
,-62167219199998
NMEA,$BDGSV,4,2,16,205,20,249,,207,77,094,,208,73,207,15,210,75,334,*61
,-62167219199998
NMEA,$BDGSV,4,3,16,212,35,275,32,213,45,214,,219,17,084,,222,16,136,*69
,-62167219199998
NMEA,$BDGSV,4,4,16,224,45,294,28,226,55,209,27,234,12,262,,235,45,037,*66
,-62167219199998
NMEA,$QZGSV,1,1,03,193,18,137,,194,47,150,,195,66,053,16*66
,-62167219199998
NMEA,$GAGSV,2,1,07,111,60,258,27,112,54,027,,119,05,,,121,05,,*6C
,-62167219199998
NMEA,$GAGSV,2,2,07,124,84,177,,125,37,318,26,131,32,144,*6A
,-62167219199998
NMEA,$GPRMC,131739.37,V,3030.723322,N,11424.387622,E,001.2,066.5,230121,,E,N*01
,-62167219199998
Raw,1944162248,11600000000,18,0.0,-1295443065769779712,0.0,333.564095198152,-387.39220078906584,0.0,4,1,0.0,0,0,10,0.0,-0.0,0.1,16,0.0,0.1,1.57542003E9,,,,0,,1,6.0,1.57542003E9
Raw,1944162248,11600000000,18,0.0,-1295443065769779712,0.0,333.564095198152,-387.39220078906584,0.0,4,3,0.0,0,0,10,0.0,-0.0,0.1,16,0.0,0.1,1.57542003E9,,,,0,,1,6.0,1.57542003E9
Raw,1944162248,11600000000,18,0.0,-1295443065769779712,0.0,333.564095198152,-387.39220078906584,0.0,4,11,0.0,0,0,10,0.0,-0.0,0.1,16,0.0,0.1,1.57542003E9,,,,0,,1,6.0,1.57542003E9
Raw,1944162248,11600000000,18,0.0,-1295443065769779712,0.0,333.564095198152,-387.39220078906584,0.0,4,14,0.0,0,0,10,0.0,-0.0,0.1,16,0.0,0.1,1.57542003E9,,,,0,,1,6.0,1.57542003E9
Raw,1944162248,11600000000,18,0.0,-1295443065769779712,0.0,333.564095198152,-387.39220078906584,0.0,4,2,0.0,0,0,10,0.0,-0.0,0.1,16,0.0,0.1,1.59975002E9,,,,0,,3,6.0,1.59975002E9
Raw,1944162248,11600000000,18,0.0,-1295443065769779712,0.0,333.564095198152,-387.39220078906584,0.0,4,3,0.0,0,0,10,0.0,-0.0,0.1,16,0.0,0.1,1.60481254E9,,,,0,,3,6.0,1.60481254E9
Raw,1944162248,11600000000,18,0.0,-1295443065769779712,0.0,333.564095198152,-387.39220078906584,0.0,4,15,0.0,0,0,10,0.0,-0.0,0.1,16,0.0,0.1,1.602E9,,,,0,,3,6.0,1.602E9
Raw,1944162248,11600000000,18,0.0,-1295443065769779712,0.0,333.564095198152,-387.39220078906584,0.0,4,16,0.0,0,0,10,0.0,-0.0,0.1,16,0.0,0.1,1.60143744E9,,,,0,,3,6.0,1.60143744E9
Raw,1944162248,11600000000,18,0.0,-1295443065769779712,0.0,333.564095198152,-387.39220078906584,0.0,4,17,0.0,0,0,10,0.0,-0.0,0.1,16,0.0,0.1,1.60424998E9,,,,0,,3,6.0,1.60424998E9
Raw,1944162248,11600000000,18,0.0,-1295443065769779712,0.0,333.564095198152,-387.39220078906584,0.0,4,18,0.0,0,0,10,0.0,-0.0,0.1,16,0.0,0.1,1.60031245E9,,,,0,,3,6.0,1.60031245E9
Raw,1944162249,11600000000,18,0.0,-1295443065769779712,0.0,333.564095198152,-387.39220078906584,0.0,4,20,0.0,0,0,10,0.0,-0.0,0.1,16,0.0,0.1,1.60312499E9,,,,0,,3,6.0,1.60312499E9
Raw,1944162249,11600000000,18,0.0,-1295443065769779712,0.0,333.564095198152,-387.39220078906584,0.0,4,7,0.0,0,0,10,0.0,-0.0,0.1,16,0.0,0.1,1.56109798E9,,,,0,,5,6.0,1.56109798E9
Raw,1944162249,11600000000,18,0.0,-1295443065769779712,0.0,333.564095198152,-387.39220078906584,0.0,4,10,0.0,0,0,10,0.0,-0.0,0.1,16,0.0,0.1,1.56109798E9,,,,0,,5,6.0,1.56109798E9
Raw,1944162249,11600000000,18,0.0,-1295443065769779712,0.0,333.564095198152,-387.39220078906584,0.0,4,13,0.0,0,0,10,0.0,-0.0,0.1,16,0.0,0.1,1.56109798E9,,,,0,,5,6.0,1.56109798E9
Raw,1944162249,11600000000,18,0.0,-1295443065769779712,0.0,333.564095198152,-387.39220078906584,0.0,4,19,0.0,0,0,10,0.0,-0.0,0.1,16,0.0,0.1,1.56109798E9,,,,0,,5,6.0,1.56109798E9
Raw,1944162249,11600000000,18,0.0,-1295443065769779712,0.0,333.564095198152,-387.39220078906584,0.0,4,22,0.0,0,0,10,0.0,-0.0,0.1,16,0.0,0.1,1.56109798E9,,,,0,,5,6.0,1.56109798E9
Raw,1944162249,11600000000,18,0.0,-1295443065769779712,0.0,333.564095198152,-387.39220078906584,0.0,4,34,0.0,0,0,10,0.0,-0.0,0.1,16,0.0,0.1,1.56109798E9,,,,0,,5,6.0,1.56109798E9
Raw,1944162249,11600000000,18,0.0,-1295443065769779712,0.0,333.564095198152,-387.39220078906584,0.0,4,35,0.0,0,0,10,0.0,-0.0,0.1,16,0.0,0.1,1.56109798E9,,,,0,,5,6.0,1.56109798E9
Raw,1944162249,11600000000,18,0.0,-1295443065769779712,0.0,333.564095198152,-387.39220078906584,0.0,4,12,0.0,0,0,10,0.0,-0.0,0.1,16,0.0,0.1,1.57542003E9,,,,0,,6,6.0,1.57542003E9
Raw,1944162249,11600000000,18,0.0,-1295443065769779712,0.0,333.564095198152,-387.39220078906584,0.0,4,24,0.0,0,0,10,0.0,-0.0,0.1,16,0.0,0.1,1.57542003E9,,,,0,,6,6.0,1.57542003E9
Raw,1944162250,11600000000,18,0.0,-1295443065769779712,0.0,333.564095198152,-387.39220078906584,0.0,4,31,0.0,0,0,10,0.0,-0.0,0.1,16,0.0,0.1,1.57542003E9,,,,0,,6,6.0,1.57542003E9
Raw,1944162250,11600000000,18,0.0,-1295443065769779712,0.0,333.564095198152,-387.39220078906584,0.0,4,193,0.0,0,0,10,0.0,-0.0,0.1,16,0.0,0.1,1.57542003E9,,,,0,,4,6.0,1.57542003E9
Raw,1944162250,11600000000,18,0.0,-1295443065769779712,0.0,333.564095198152,-387.39220078906584,0.0,4,194,0.0,0,0,10,0.0,-0.0,0.1,16,0.0,0.1,1.57542003E9,,,,0,,4,6.0,1.57542003E9
Raw,1944162250,11600000000,18,0.0,-1295443065769779712,0.0,333.564095198152,-387.39220078906584,0.0,4,1,0.0,0,0,10,0.0,-0.0,0.1,16,0.0,0.1,1.56109798E9,,,,0,,5,6.0,1.56109798E9
Raw,1944162250,11600000000,18,0.0,-1295443065769779712,0.0,333.564095198152,-387.39220078906584,0.0,4,2,0.0,0,0,10,0.0,-0.0,0.1,16,0.0,0.1,1.56109798E9,,,,0,,5,6.0,1.56109798E9
Raw,1944162250,11600000000,18,0.0,-1295443065769779712,0.0,333.564095198152,-387.39220078906584,0.0,4,3,0.0,0,0,10,0.0,-0.0,0.1,16,0.0,0.1,1.56109798E9,,,,0,,5,6.0,1.56109798E9
Raw,1944162250,11600000000,18,0.0,-1295443065769779712,0.0,333.564095198152,-387.39220078906584,0.0,4,4,0.0,0,0,10,0.0,-0.0,0.1,16,0.0,0.1,1.56109798E9,,,,0,,5,6.0,1.56109798E9
Raw,1944162250,11600000000,18,0.0,-1295443065769779712,0.0,333.564095198152,-387.39220078906584,0.0,4,5,0.0,0,0,10,0.0,-0.0,0.1,16,0.0,0.1,1.56109798E9,,,,0,,5,6.0,1.56109798E9
Raw,1944162250,11600000000,18,0.0,-1295443065769779712,0.0,333.564095198152,-387.39220078906584,0.0,4,19,0.0,16399,566277292269660,6,28.0,-512.8471155703077,0.030000001144409223,17,-1538.9245694936571,0.1,1.57542003E9,,,,2,,1,6.0,1.57542003E9
Raw,1944162250,11600000000,18,0.0,-1295443065769779712,0.0,333.564095198152,-387.39220078906584,0.0,4,30,0.0,16399,566277295824296,6,29.0,345.18910845765146,0.030000001144409223,17,1035.7575371831304,0.1,1.57542003E9,,,,2,,1,6.0,1.57542003E9
Raw,1944162251,11600000000,18,0.0,-1295443065769779712,0.0,333.564095198152,-387.39220078906584,0.0,4,9,0.0,35,18596281,28,25.0,-707.9742394244513,0.05,17,3338601.7889143657,0.1,1.60087501E9,,,,2,,3,6.0,1.60087501E9
Raw,1944162251,11600000000,18,0.0,-1295443065769779712,0.0,333.564095198152,-387.39220078906584,0.0,4,12,0.0,16399,566263291232436,5,32.0,-370.83482654503274,0.02,17,-1112.718239788008,0.1,1.56109798E9,,,,2,,5,6.0,1.56109798E9
Raw,1944162251,11600000000,18,0.0,-1295443065769779712,0.0,333.564095198152,-387.39220078906584,0.0,4,6,0.0,3,11149615,10,17.0,-709.6963445637548,0.1,16,0.0,0.1,1.57542003E9,,,,0,,1,6.0,1.57542003E9
Raw,1944162251,11600000000,18,0.0,-1295443065769779712,0.0,333.564095198152,-387.39220078906584,0.0,4,7,0.0,3,11497164,13,17.0,533.2724229500204,0.30000000715255754,16,0.0,0.1,1.57542003E9,,,,1,,1,6.0,1.57542003E9
Raw,1944162251,11600000000,18,0.0,-1295443065769779712,0.0,333.564095198152,-387.39220078906584,0.0,4,8,0.0,3,7289534,7,17.0,307.99370632505264,0.05,16,0.0,0.1,1.57542003E9,,,,0,,1,6.0,1.57542003E9
Raw,1944162251,11600000000,18,0.0,-1295443065769779712,0.0,333.564095198152,-387.39220078906584,0.0,4,21,0.0,3,9984747,81,17.0,462.02713768936496,0.30000000715255754,16,0.0,0.1,1.57542003E9,,,,0,,1,6.0,1.57542003E9
Raw,1944162251,11600000000,18,0.0,-1295443065769779712,0.0,333.564095198152,-387.39220078906584,0.0,4,22,0.0,3,14880781,81,18.0,-83.97766985289523,0.30000000715255754,16,0.0,0.1,1.57542003E9,,,,0,,1,6.0,1.57542003E9
Raw,1944162251,11600000000,18,0.0,-1295443065769779712,0.0,333.564095198152,-387.39220078906584,0.0,4,28,0.0,3,19762285,9,20.0,-422.37463657210105,0.30000000715255754,17,-1266.6764261620583,0.1,1.57542003E9,,,,2,,1,6.0,1.57542003E9
Raw,1944162252,11600000000,18,0.0,-1295443065769779712,0.0,333.564095198152,-387.39220078906584,0.0,4,8,0.0,3,7988944,101,15.0,-191.51537107889223,0.5,17,-573.5068466786855,0.1,1.56109798E9,,,,1,,5,6.0,1.56109798E9
Raw,1944162252,11600000000,18,0.0,-1295443065769779712,0.0,333.564095198152,-387.39220078906584,0.0,4,24,0.0,16399,566263292332409,6,28.0,-308.32790297867194,0.030000001144409223,17,-924.9343807211475,0.1,1.56109798E9,,,,2,,5,6.0,1.56109798E9
Raw,1944162252,11600000000,18,0.0,-1295443065769779712,0.0,333.564095198152,-387.39220078906584,0.0,4,26,0.0,16399,566263295845631,6,27.0,236.91721630384615,0.030000001144409223,17,709.9843551405911,0.1,1.56109798E9,,,,2,,5,6.0,1.56109798E9
Raw,1944162252,11600000000,18,0.0,-1295443065769779712,0.0,333.564095198152,-387.39220078906584,0.0,4,195,0.0,3,18242177,125,16.0,-103.27283445854772,0.5,17,-309.0741710888208,0.1,1.57542003E9,,,,1,,4,6.0,1.57542003E9
Raw,1944162252,11600000000,18,0.0,-1295443065769779712,0.0,333.564095198152,-387.39220078906584,0.0,4,17,0.0,3,16150905,19,30.0,-318.35429730004205,0.030000001144409223,17,-957.0299624834665,0.1,1.57542003E9,,,,2,,1,6.0,1.57542003E9
Raw,1944162252,11600000000,18,0.0,-1295443065769779712,0.0,333.564095198152,-387.39220078906584,0.0,4,19,0.0,35,2193854,52,21.0,-155.3210872576397,0.5,18,-0.016888519959771413,0.1,1.60368755E9,,,,1,,3,6.0,1.60368755E9
Raw,1944162252,11600000000,18,0.0,-1295443065769779712,0.0,333.564095198152,-387.39220078906584,0.0,4,11,0.0,3072,96512100,10,27.0,-258.0315892085451,0.1,18,-0.0879857978270741,0.1,1.57542003E9,,,,2,,6,6.0,1.57542003E9
Raw,1944162252,11600000000,18,0.0,-1295443065769779712,0.0,333.564095198152,-387.39220078906584,0.0,4,25,0.0,3072,84835705,10,26.0,-531.095114647094,0.1,18,-0.036050732849341946,0.1,1.57542003E9,,,,2,,6,6.0,1.57542003E9
Fix,gps,30.512068,114.406745,86.117481,0.286482,20.000000,1611407861000
NMEA,$GPGGA,131741.00,3030.724058,N,11424.404687,E,1,12,0.9,86.1,M,,M,,*41
,1611407861003
NMEA,$GNGSA,A,3,1,3,6,7,8,14,17,19,21,22,28,30,1.7,0.9,1.4*1C
,1611407861003
NMEA,$GPGSA,A,3,1,3,6,7,8,14,17,19,21,22,28,30,1.7,0.9,1.4*02
,1611407861003
NMEA,$GPGSA,A,3,,,,,,,,,,,,,1.7,0.9,1.4,8*2C
,1611407861003
NMEA,$GLGSA,A,3,73,83,,,,,,,,,,,1.7,0.9,1.4*2B
,1611407861003
NMEA,$BDGSA,A,3,208,212,219,224,226,,,,,,,,1.7,0.9,1.4*1A
,1611407861003
NMEA,$BDGSA,A,3,,,,,,,,,,,,,1.7,0.9,1.4,7*32
,1611407861003
NMEA,$GAGSA,A,3,111,125,,,,,,,,,,,1.7,0.9,1.4*2E
,1611407861003
NMEA,$GAGSA,A,3,,,,,,,,,,,,,1.7,0.9,1.4,1*34
,1611407861003
NMEA,$QZGSA,A,3,195,,,,,,,,,,,,1.7,0.9,1.4*19
,1611407861003
NMEA,$PJGSA,A,3,,,,,,,,,,,,,1.7,0.9,1.4*35
,1611407861003
NMEA,$GPGSV,4,1,13,01,46,037,17,03,38,115,11,06,20,225,19,07,18,186,19*72
,1611407861003
NMEA,$GPGSV,4,2,13,08,11,077,16,11,23,051,,14,73,340,17,17,41,304,28*79
,1611407861003
NMEA,$GPGSV,4,3,13,19,24,284,30,21,24,042,13,22,36,081,09,28,63,334,20*72
,1611407861003
NMEA,$GPGSV,4,4,13,30,37,218,24*41
,1611407861003
NMEA,$GLGSV,3,1,09,66,06,051,,67,09,099,,73,34,324,28,79,27,165,*61
,1611407861003
NMEA,$GLGSV,3,2,09,80,74,242,,81,05,046,,82,42,012,,83,51,294,17*65
,1611407861003
NMEA,$GLGSV,3,3,09,84,08,246,*58
,1611407861003
NMEA,$BDGSV,4,1,16,201,42,130,,202,40,228,,203,54,187,,204,30,115,*6F
,1611407861003
NMEA,$BDGSV,4,2,16,205,20,249,,207,77,094,,208,73,207,15,210,75,334,*61
,1611407861003
NMEA,$BDGSV,4,3,16,212,35,275,31,213,45,214,,219,17,084,18,222,16,136,*63
,1611407861003
NMEA,$BDGSV,4,4,16,224,45,294,28,226,55,209,25,234,12,262,,235,45,037,*64
,1611407861003
NMEA,$QZGSV,1,1,03,193,18,137,,194,47,150,,195,66,053,15*65
,1611407861003
NMEA,$GAGSV,2,1,07,111,60,258,27,112,54,027,,124,84,177,,125,37,318,24*63
,1611407861003
NMEA,$GAGSV,2,2,07,131,32,144,,133,06,044,,136,12,235,*68
,1611407861003
NMEA,$GPRMC,131741.00,A,3030.724058,N,11424.404687,E,000.6,275.9,230121,,E,A*11
,1611407861003
Raw,1944163919,12600000000,18,0.0,-1295443066400001536,0.0,333.564095198152,-383.7551944147137,0.0,4,11,0.0,0,0,10,0.0,-0.0,0.1,16,0.0,0.1,1.57542003E9,,,,0,,1,7.0,1.57542003E9
Raw,1944163919,12600000000,18,0.0,-1295443066400001536,0.0,333.564095198152,-383.7551944147137,0.0,4,2,0.0,0,0,10,0.0,-0.0,0.1,16,0.0,0.1,1.59975002E9,,,,0,,3,7.0,1.59975002E9
Raw,1944163919,12600000000,18,0.0,-1295443066400001536,0.0,333.564095198152,-383.7551944147137,0.0,4,3,0.0,0,0,10,0.0,-0.0,0.1,16,0.0,0.1,1.60481254E9,,,,0,,3,7.0,1.60481254E9
Raw,1944163920,12600000000,18,0.0,-1295443066400001536,0.0,333.564095198152,-383.7551944147137,0.0,4,15,0.0,0,0,10,0.0,-0.0,0.1,16,0.0,0.1,1.602E9,,,,0,,3,7.0,1.602E9
Raw,1944163920,12600000000,18,0.0,-1295443066400001536,0.0,333.564095198152,-383.7551944147137,0.0,4,16,0.0,0,0,10,0.0,-0.0,0.1,16,0.0,0.1,1.60143744E9,,,,0,,3,7.0,1.60143744E9
Raw,1944163920,12600000000,18,0.0,-1295443066400001536,0.0,333.564095198152,-383.7551944147137,0.0,4,17,0.0,0,0,10,0.0,-0.0,0.1,16,0.0,0.1,1.60424998E9,,,,0,,3,7.0,1.60424998E9
Raw,1944163920,12600000000,18,0.0,-1295443066400001536,0.0,333.564095198152,-383.7551944147137,0.0,4,18,0.0,0,0,10,0.0,-0.0,0.1,16,0.0,0.1,1.60031245E9,,,,0,,3,7.0,1.60031245E9
Raw,1944163920,12600000000,18,0.0,-1295443066400001536,0.0,333.564095198152,-383.7551944147137,0.0,4,20,0.0,0,0,10,0.0,-0.0,0.1,16,0.0,0.1,1.60312499E9,,,,0,,3,7.0,1.60312499E9
Raw,1944163920,12600000000,18,0.0,-1295443066400001536,0.0,333.564095198152,-383.7551944147137,0.0,4,7,0.0,0,0,10,0.0,-0.0,0.1,16,0.0,0.1,1.56109798E9,,,,0,,5,7.0,1.56109798E9
Raw,1944163920,12600000000,18,0.0,-1295443066400001536,0.0,333.564095198152,-383.7551944147137,0.0,4,10,0.0,0,0,10,0.0,-0.0,0.1,16,0.0,0.1,1.56109798E9,,,,0,,5,7.0,1.56109798E9
Raw,1944163920,12600000000,18,0.0,-1295443066400001536,0.0,333.564095198152,-383.7551944147137,0.0,4,13,0.0,0,0,10,0.0,-0.0,0.1,16,0.0,0.1,1.56109798E9,,,,0,,5,7.0,1.56109798E9
Raw,1944163920,12600000000,18,0.0,-1295443066400001536,0.0,333.564095198152,-383.7551944147137,0.0,4,22,0.0,0,0,10,0.0,-0.0,0.1,16,0.0,0.1,1.56109798E9,,,,0,,5,7.0,1.56109798E9
Raw,1944163921,12600000000,18,0.0,-1295443066400001536,0.0,333.564095198152,-383.7551944147137,0.0,4,34,0.0,0,0,10,0.0,-0.0,0.1,16,0.0,0.1,1.56109798E9,,,,0,,5,7.0,1.56109798E9
Raw,1944163921,12600000000,18,0.0,-1295443066400001536,0.0,333.564095198152,-383.7551944147137,0.0,4,35,0.0,0,0,10,0.0,-0.0,0.1,16,0.0,0.1,1.56109798E9,,,,0,,5,7.0,1.56109798E9
Raw,1944163921,12600000000,18,0.0,-1295443066400001536,0.0,333.564095198152,-383.7551944147137,0.0,4,12,0.0,0,0,10,0.0,-0.0,0.1,16,0.0,0.1,1.57542003E9,,,,0,,6,7.0,1.57542003E9
Raw,1944163921,12600000000,18,0.0,-1295443066400001536,0.0,333.564095198152,-383.7551944147137,0.0,4,24,0.0,0,0,10,0.0,-0.0,0.1,16,0.0,0.1,1.57542003E9,,,,0,,6,7.0,1.57542003E9
Raw,1944163921,12600000000,18,0.0,-1295443066400001536,0.0,333.564095198152,-383.7551944147137,0.0,4,31,0.0,0,0,10,0.0,-0.0,0.1,16,0.0,0.1,1.57542003E9,,,,0,,6,7.0,1.57542003E9
Raw,1944163921,12600000000,18,0.0,-1295443066400001536,0.0,333.564095198152,-383.7551944147137,0.0,4,193,0.0,0,0,10,0.0,-0.0,0.1,16,0.0,0.1,1.57542003E9,,,,0,,4,7.0,1.57542003E9
Raw,1944163921,12600000000,18,0.0,-1295443066400001536,0.0,333.564095198152,-383.7551944147137,0.0,4,194,0.0,0,0,10,0.0,-0.0,0.1,16,0.0,0.1,1.57542003E9,,,,0,,4,7.0,1.57542003E9
Raw,1944163921,12600000000,18,0.0,-1295443066400001536,0.0,333.564095198152,-383.7551944147137,0.0,4,1,0.0,0,0,10,0.0,-0.0,0.1,16,0.0,0.1,1.56109798E9,,,,0,,5,7.0,1.56109798E9
Raw,1944163922,12600000000,18,0.0,-1295443066400001536,0.0,333.564095198152,-383.7551944147137,0.0,4,2,0.0,0,0,10,0.0,-0.0,0.1,16,0.0,0.1,1.56109798E9,,,,0,,5,7.0,1.56109798E9
Raw,1944163922,12600000000,18,0.0,-1295443066400001536,0.0,333.564095198152,-383.7551944147137,0.0,4,3,0.0,0,0,10,0.0,-0.0,0.1,16,0.0,0.1,1.56109798E9,,,,0,,5,7.0,1.56109798E9
Raw,1944163922,12600000000,18,0.0,-1295443066400001536,0.0,333.564095198152,-383.7551944147137,0.0,4,4,0.0,0,0,10,0.0,-0.0,0.1,16,0.0,0.1,1.56109798E9,,,,0,,5,7.0,1.56109798E9
Raw,1944163922,12600000000,18,0.0,-1295443066400001536,0.0,333.564095198152,-383.7551944147137,0.0,4,5,0.0,0,0,10,0.0,-0.0,0.1,16,0.0,0.1,1.56109798E9,,,,0,,5,7.0,1.56109798E9
Raw,1944163922,12600000000,18,0.0,-1295443066400001536,0.0,333.564095198152,-383.7551944147137,0.0,4,19,0.0,16399,566278922493023,6,30.0,-512.8677576253602,0.030000001144409223,17,1.1085470983173977E8,0.1,1.57542003E9,,,,2,,1,7.0,1.57542003E9
Raw,1944163922,12600000000,18,0.0,-1295443066400001536,0.0,333.564095198152,-383.7551944147137,0.0,4,30,0.0,16399,566278926042985,7,24.0,345.50251112610573,0.05,17,1.1135627644216818E8,0.1,1.57542003E9,,,,2,,1,7.0,1.57542003E9
Raw,1944163922,12600000000,18,0.0,-1295443066400001536,0.0,333.564095198152,-383.7551944147137,0.0,4,9,0.0,35,8820674,21,28.0,-707.2597263030136,0.030000001144409223,17,1.1649958712500784E8,0.1,1.60087501E9,,,,2,,3,7.0,1.60087501E9
Raw,1944163923,12600000000,18,0.0,-1295443066400001536,0.0,333.564095198152,-383.7551944147137,0.0,4,12,0.0,16399,566264921455020,6,31.0,-370.6650074478932,0.02,17,1.1085536753269759E8,0.1,1.56109798E9,,,,2,,5,7.0,1.56109798E9
Raw,1944163923,12600000000,18,0.0,-1295443066400001536,0.0,333.564095198152,-383.7551944147137,0.0,4,1,0.0,3,9648742,41,17.0,381.57005705338395,0.30000000715255754,16,0.0,0.1,1.57542003E9,,,,1,,1,7.0,1.57542003E9
Raw,1944163923,12600000000,18,0.0,-1295443066400001536,0.0,333.564095198152,-383.7551944147137,0.0,4,3,0.0,3,6274615,5,11.0,-451.81811368196327,0.02,18,-0.08984385942261645,0.1,1.57542003E9,,,,1,,1,7.0,1.57542003E9
Raw,1944163923,12600000000,18,0.0,-1295443066400001536,0.0,333.564095198152,-383.7551944147137,0.0,4,6,0.0,3,1373824,6,19.0,-711.0238037937895,0.030000001144409223,17,-710.772660821173,0.1,1.57542003E9,,,,0,,1,7.0,1.57542003E9
Raw,1944163923,12600000000,18,0.0,-1295443066400001536,0.0,333.564095198152,-383.7551944147137,0.0,4,7,0.0,3,1714896,161,19.0,534.1031255647239,0.30000000715255754,17,534.2921949932113,0.1,1.57542003E9,,,,1,,1,7.0,1.57542003E9
Raw,1944163923,12600000000,18,0.0,-1295443066400001536,0.0,333.564095198152,-383.7551944147137,0.0,4,8,0.0,3,17508526,134,16.0,309.0422582606694,0.5,17,309.0648599703989,0.1,1.57542003E9,,,,2,,1,7.0,1.57542003E9
Raw,1944163923,12600000000,18,0.0,-1295443066400001536,0.0,333.564095198152,-383.7551944147137,0.0,4,14,0.0,3,12109567,81,17.0,-310.42928799802894,0.30000000715255754,16,0.0,0.1,1.57542003E9,,,,1,,1,7.0,1.57542003E9
Raw,1944163923,12600000000,18,0.0,-1295443066400001536,0.0,333.564095198152,-383.7551944147137,0.0,4,21,0.0,3,202756,201,13.0,462.3755467744339,0.5,17,462.6919030662776,0.1,1.57542003E9,,,,0,,1,7.0,1.57542003E9
Raw,1944163923,12600000000,18,0.0,-1295443066400001536,0.0,333.564095198152,-383.7551944147137,0.0,4,22,0.0,3,5101710,13,9.0,-84.13364817802008,0.30000000715255754,17,-83.93655840026358,0.1,1.57542003E9,,,,0,,1,7.0,1.57542003E9
Raw,1944163923,12600000000,18,0.0,-1295443066400001536,0.0,333.564095198152,-383.7551944147137,0.0,4,28,0.0,3,9985162,9,20.0,-423.19969158558405,0.30000000715255754,17,1.1085512888853182E8,0.1,1.57542003E9,,,,2,,1,7.0,1.57542003E9
Raw,1944163924,12600000000,18,0.0,-1295443066400001536,0.0,333.564095198152,-383.7551944147137,0.0,4,8,0.0,3,18210552,201,15.0,-192.38481156815232,0.5,17,1.1085619833451654E8,0.1,1.56109798E9,,,,1,,5,7.0,1.56109798E9
Raw,1944163924,12600000000,18,0.0,-1295443066400001536,0.0,333.564095198152,-383.7551944147137,0.0,4,19,0.0,3,16204500,81,18.0,-315.17687416984444,0.30000000715255754,18,0.13789786841546664,0.1,1.56109798E9,,,,1,,5,7.0,1.56109798E9
Raw,1944163924,12600000000,18,0.0,-1295443066400001536,0.0,333.564095198152,-383.7551944147137,0.0,4,24,0.0,16399,566264922554651,6,28.0,-308.0962430410921,0.030000001144409223,17,1.1085565734972744E8,0.1,1.56109798E9,,,,2,,5,7.0,1.56109798E9
Raw,1944163924,12600000000,18,0.0,-1295443066400001536,0.0,333.564095198152,-383.7551944147137,0.0,4,26,0.0,16399,566264926064924,7,25.0,237.3249544380339,0.05,17,1.1136033914880075E8,0.1,1.56109798E9,,,,2,,5,7.0,1.56109798E9
Raw,1944163924,12600000000,18,0.0,-1295443066400001536,0.0,333.564095198152,-383.7551944147137,0.0,4,195,0.0,3,8463315,52,15.0,-103.39473843903316,0.5,17,1.1085660749244556E8,0.1,1.57542003E9,,,,1,,4,7.0,1.57542003E9
Raw,1944163924,12600000000,18,0.0,-1295443066400001536,0.0,333.564095198152,-383.7551944147137,0.0,4,17,0.0,3,6373192,6,28.0,-318.13930807537673,0.030000001144409223,17,1.1085560898989742E8,0.1,1.57542003E9,,,,2,,1,7.0,1.57542003E9
Raw,1944163924,12600000000,18,0.0,-1295443066400001536,0.0,333.564095198152,-383.7551944147137,0.0,4,19,0.0,35,12415238,126,17.0,-158.5219860455199,0.5,17,1.108568301034272E8,0.1,1.60368755E9,,,,1,,3,7.0,1.60368755E9
Raw,1944163924,12600000000,18,0.0,-1295443066400001536,0.0,333.564095198152,-383.7551944147137,0.0,4,11,0.0,3072,26734053,19,27.0,-258.03404569730225,0.030000001144409223,17,1.1085666407455483E8,0.1,1.57542003E9,,,,2,,6,7.0,1.57542003E9
Raw,1944163924,12600000000,18,0.0,-1295443066400001536,0.0,333.564095198152,-383.7551944147137,0.0,4,25,0.0,3072,15059156,52,24.0,-531.1499210599673,0.5,17,1.1085621891727E8,0.1,1.57542003E9,,,,2,,6,7.0,1.57542003E9
Fix,gps,30.512065,114.406853,81.370012,0.933751,20.000000,1611407862000
NMEA,$GPGGA,131742.00,3030.723871,N,11424.411161,E,1,19,0.7,81.4,M,,M,,*4A
,1611407862004
NMEA,$GNGSA,A,3,1,3,6,7,8,14,17,19,21,22,28,30,1.4,0.7,1.2*17
,1611407862004
NMEA,$GPGSA,A,3,1,3,6,7,8,14,17,19,21,22,28,30,1.4,0.7,1.2*09
,1611407862004
NMEA,$GPGSA,A,3,,,,,,,,,,,,,1.4,0.7,1.2,8*27
,1611407862004
NMEA,$GLGSA,A,3,73,83,,,,,,,,,,,1.4,0.7,1.2*20
,1611407862004
NMEA,$BDGSA,A,3,208,212,219,224,226,,,,,,,,1.4,0.7,1.2*11
,1611407862004
NMEA,$BDGSA,A,3,,,,,,,,,,,,,1.4,0.7,1.2,7*39
,1611407862004
NMEA,$GAGSA,A,3,111,125,,,,,,,,,,,1.4,0.7,1.2*25
,1611407862004
NMEA,$GAGSA,A,3,,,,,,,,,,,,,1.4,0.7,1.2,1*3F
,1611407862004
NMEA,$QZGSA,A,3,195,,,,,,,,,,,,1.4,0.7,1.2*12
,1611407862004
NMEA,$PJGSA,A,3,,,,,,,,,,,,,1.4,0.7,1.2*3E
,1611407862004
NMEA,$GPGSV,4,1,13,01,46,037,18,03,38,115,12,06,20,225,17,07,18,186,19*70
,1611407862004
NMEA,$GPGSV,4,2,13,08,11,077,15,11,23,051,,14,73,340,18,17,41,304,30*7C
,1611407862004
NMEA,$GPGSV,4,3,13,19,24,284,31,21,24,042,11,22,36,081,11,28,63,334,20*78
,1611407862004
NMEA,$GPGSV,4,4,13,30,37,218,21*44
,1611407862004
NMEA,$GLGSV,3,1,09,66,06,051,,67,09,099,,73,34,324,26,79,27,165,*6F
,1611407862004
NMEA,$GLGSV,3,2,09,80,74,242,,81,05,046,,82,42,012,,83,51,294,17*65
,1611407862004
NMEA,$GLGSV,3,3,09,84,08,246,*58
,1611407862004
NMEA,$BDGSV,4,1,16,201,42,130,,202,40,228,,203,54,187,,204,30,115,*6F
,1611407862004
NMEA,$BDGSV,4,2,16,205,20,249,,207,77,094,,208,73,207,15,210,75,334,*61
,1611407862004
NMEA,$BDGSV,4,3,16,212,35,275,31,213,45,214,,219,17,084,14,222,16,136,*6F
,1611407862004
NMEA,$BDGSV,4,4,16,224,45,294,31,226,55,209,23,234,12,262,,235,45,037,*6A
,1611407862004
NMEA,$QZGSV,1,1,03,193,18,137,,194,47,150,,195,65,053,13*60
,1611407862004
NMEA,$GAGSV,2,1,07,111,60,258,28,112,54,027,,124,84,177,,125,37,318,23*6B
,1611407862004
NMEA,$GAGSV,2,2,07,131,32,144,,133,06,044,,136,12,235,*68
,1611407862004
NMEA,$GPRMC,131742.00,A,3030.723871,N,11424.411161,E,001.8,064.3,230121,,E,A*1A
,1611407862004
Raw,1944164937,13600000000,18,0.0,-1295443066400001792,0.0,333.564095198152,-386.40294868092207,0.0,4,11,0.0,0,0,10,0.0,-0.0,0.1,16,0.0,0.1,1.57542003E9,,,,0,,1,5.0,1.57542003E9
Raw,1944164937,13600000000,18,0.0,-1295443066400001792,0.0,333.564095198152,-386.40294868092207,0.0,4,2,0.0,0,0,10,0.0,-0.0,0.1,16,0.0,0.1,1.59975002E9,,,,0,,3,5.0,1.59975002E9
Raw,1944164937,13600000000,18,0.0,-1295443066400001792,0.0,333.564095198152,-386.40294868092207,0.0,4,3,0.0,0,0,10,0.0,-0.0,0.1,16,0.0,0.1,1.60481254E9,,,,0,,3,5.0,1.60481254E9
Raw,1944164937,13600000000,18,0.0,-1295443066400001792,0.0,333.564095198152,-386.40294868092207,0.0,4,15,0.0,0,0,10,0.0,-0.0,0.1,16,0.0,0.1,1.602E9,,,,0,,3,5.0,1.602E9
Raw,1944164937,13600000000,18,0.0,-1295443066400001792,0.0,333.564095198152,-386.40294868092207,0.0,4,16,0.0,0,0,10,0.0,-0.0,0.1,16,0.0,0.1,1.60143744E9,,,,0,,3,5.0,1.60143744E9
Raw,1944164938,13600000000,18,0.0,-1295443066400001792,0.0,333.564095198152,-386.40294868092207,0.0,4,17,0.0,0,0,10,0.0,-0.0,0.1,16,0.0,0.1,1.60424998E9,,,,0,,3,5.0,1.60424998E9
Raw,1944164938,13600000000,18,0.0,-1295443066400001792,0.0,333.564095198152,-386.40294868092207,0.0,4,18,0.0,0,0,10,0.0,-0.0,0.1,16,0.0,0.1,1.60031245E9,,,,0,,3,5.0,1.60031245E9
Raw,1944164938,13600000000,18,0.0,-1295443066400001792,0.0,333.564095198152,-386.40294868092207,0.0,4,20,0.0,0,0,10,0.0,-0.0,0.1,16,0.0,0.1,1.60312499E9,,,,0,,3,5.0,1.60312499E9
Raw,1944164938,13600000000,18,0.0,-1295443066400001792,0.0,333.564095198152,-386.40294868092207,0.0,4,7,0.0,0,0,10,0.0,-0.0,0.1,16,0.0,0.1,1.56109798E9,,,,0,,5,5.0,1.56109798E9
Raw,1944164938,13600000000,18,0.0,-1295443066400001792,0.0,333.564095198152,-386.40294868092207,0.0,4,10,0.0,0,0,10,0.0,-0.0,0.1,16,0.0,0.1,1.56109798E9,,,,0,,5,5.0,1.56109798E9
Raw,1944164939,13600000000,18,0.0,-1295443066400001792,0.0,333.564095198152,-386.40294868092207,0.0,4,13,0.0,0,0,10,0.0,-0.0,0.1,16,0.0,0.1,1.56109798E9,,,,0,,5,5.0,1.56109798E9
Raw,1944164939,13600000000,18,0.0,-1295443066400001792,0.0,333.564095198152,-386.40294868092207,0.0,4,22,0.0,0,0,10,0.0,-0.0,0.1,16,0.0,0.1,1.56109798E9,,,,0,,5,5.0,1.56109798E9
Raw,1944164939,13600000000,18,0.0,-1295443066400001792,0.0,333.564095198152,-386.40294868092207,0.0,4,34,0.0,0,0,10,0.0,-0.0,0.1,16,0.0,0.1,1.56109798E9,,,,0,,5,5.0,1.56109798E9
Raw,1944164939,13600000000,18,0.0,-1295443066400001792,0.0,333.564095198152,-386.40294868092207,0.0,4,35,0.0,0,0,10,0.0,-0.0,0.1,16,0.0,0.1,1.56109798E9,,,,0,,5,5.0,1.56109798E9
Raw,1944164939,13600000000,18,0.0,-1295443066400001792,0.0,333.564095198152,-386.40294868092207,0.0,4,12,0.0,0,0,10,0.0,-0.0,0.1,16,0.0,0.1,1.57542003E9,,,,0,,6,5.0,1.57542003E9
Raw,1944164939,13600000000,18,0.0,-1295443066400001792,0.0,333.564095198152,-386.40294868092207,0.0,4,24,0.0,0,0,10,0.0,-0.0,0.1,16,0.0,0.1,1.57542003E9,,,,0,,6,5.0,1.57542003E9
Raw,1944164939,13600000000,18,0.0,-1295443066400001792,0.0,333.564095198152,-386.40294868092207,0.0,4,31,0.0,0,0,10,0.0,-0.0,0.1,16,0.0,0.1,1.57542003E9,,,,0,,6,5.0,1.57542003E9
Raw,1944164939,13600000000,18,0.0,-1295443066400001792,0.0,333.564095198152,-386.40294868092207,0.0,4,193,0.0,0,0,10,0.0,-0.0,0.1,16,0.0,0.1,1.57542003E9,,,,0,,4,5.0,1.57542003E9
Raw,1944164939,13600000000,18,0.0,-1295443066400001792,0.0,333.564095198152,-386.40294868092207,0.0,4,194,0.0,0,0,10,0.0,-0.0,0.1,16,0.0,0.1,1.57542003E9,,,,0,,4,5.0,1.57542003E9
