# 
# Header Description:
# 
# Version: v2.0.0.1 Platform: 10 Manufacturer: HUAWEI Model: LYA-AL10
# 
# Raw,ElapsedRealtimeMillis,TimeNanos,LeapSecond,TimeUncertaintyNanos,FullBiasNanos,BiasNanos,BiasUncertaintyNanos,DriftNanosPerSecond,DriftUncertaintyNanosPerSecond,HardwareClockDiscontinuityCount,Svid,TimeOffsetNanos,State,ReceivedSvTimeNanos,ReceivedSvTimeUncertaintyNanos,Cn0DbHz,PseudorangeRateMetersPerSecond,PseudorangeRateUncertaintyMetersPerSecond,AccumulatedDeltaRangeState,AccumulatedDeltaRangeMeters,AccumulatedDeltaRangeUncertaintyMeters,CarrierFrequencyHz,CarrierCycles,CarrierPhase,CarrierPhaseUncertainty,MultipathIndicator,SnrInDb,ConstellationType,AgcDb,CarrierFrequencyHz
# 
# Fix,Provider,Latitude,Longitude,Altitude,Speed,Accuracy,(UTC)TimeInMs
# 
# Nav,Svid,Type,Status,MessageId,Sub-messageId,Data(Bytes)
# 
Fix,gps,30.512059,114.406985,31.748004,0.000000,4.000000,1611408530000
NMEA,$GPGGA,132850.00,3030.723538,N,11424.419075,E,1,20,0.7,31.7,M,,M,,*4B
,1611408530004
NMEA,$GNGSA,A,3,1,3,6,7,8,14,17,19,22,30,208,212,1.4,0.7,1.3*14
,1611408530004
NMEA,$GPGSA,A,3,1,3,6,7,8,14,17,19,22,30,,,1.4,0.7,1.3*01
,1611408530004
NMEA,$GPGSA,A,3,,,,,,,,,,,,,1.4,0.7,1.3,8*26
,1611408530004
NMEA,$GLGSA,A,3,67,73,79,80,82,83,84,,,,,,1.4,0.7,1.3*20
,1611408530004
NMEA,$BDGSA,A,3,208,212,213,219,222,224,226,,,,,,1.4,0.7,1.3*12
,1611408530004
NMEA,$BDGSA,A,3,,,,,,,,,,,,,1.4,0.7,1.3,7*38
,1611408530004
NMEA,$GAGSA,A,3,111,125,,,,,,,,,,,1.4,0.7,1.3*24
,1611408530004
NMEA,$GAGSA,A,3,125,,,,,,,,,,,,1.4,0.7,1.3,1*08
,1611408530004
NMEA,$QZGSA,A,3,193,194,195,,,,,,,,,,1.4,0.7,1.3*14
,1611408530004
NMEA,$PJGSA,A,3,,,,,,,,,,,,,1.4,0.7,1.3*3F
,1611408530004
NMEA,$GPGSV,3,1,12,01,41,037,19,03,40,109,14,06,25,228,18,07,13,184,15*76
,1611408530004
Raw,1944832893,681600000000,18,0.0,-1295443066400251648,0.0,333.564095198152,-360.10413645654955,0.0,4,7,0.0,0,0,10,0.0,-0.0,0.1,17,-11613.202668856722,0.1,1.56109798E9,,,,0,,5,4.0,1.56109798E9
Raw,1944832893,681600000000,18,0.0,-1295443066400251648,0.0,333.564095198152,-360.10413645654955,0.0,4,34,0.0,0,0,10,0.0,-0.0,0.1,16,0.0,0.1,1.56109798E9,,,,0,,5,4.0,1.56109798E9
Raw,1944832893,681600000000,18,0.0,-1295443066400251648,0.0,333.564095198152,-360.10413645654955,0.0,4,28,0.0,0,0,10,0.0,-0.0,0.1,17,-734.9205018973862,0.1,1.57542003E9,,,,0,,1,4.0,1.57542003E9
Raw,1944832893,681600000000,18,0.0,-1295443066400251648,0.0,333.564095198152,-360.10413645654955,0.0,4,2,0.0,0,0,10,0.0,-0.0,0.1,17,-2968.44406899215,0.1,1.59975002E9,,,,0,,3,4.0,1.59975002E9
Raw,1944832893,681600000000,18,0.0,-1295443066400251648,0.0,333.564095198152,-360.10413645654955,0.0,4,12,0.0,0,0,10,0.0,-0.0,0.1,17,17064.72889753314,0.1,1.57542003E9,,,,0,,6,4.0,1.57542003E9
Raw,1944832893,681600000000,18,0.0,-1295443066400251648,0.0,333.564095198152,-360.10413645654955,0.0,4,24,0.0,0,0,10,0.0,-0.0,0.1,17,-1409.932040897469,0.1,1.57542003E9,,,,0,,6,4.0,1.57542003E9
Raw,1944832894,681600000000,18,0.0,-1295443066400251648,0.0,333.564095198152,-360.10413645654955,0.0,4,10,0.0,0,0,10,0.0,-0.0,0.1,17,-35994.42748922845,0.1,1.56109798E9,,,,0,,5,4.0,1.56109798E9
Raw,1944832894,681600000000,18,0.0,-1295443066400251648,0.0,333.564095198152,-360.10413645654955,0.0,4,31,0.0,0,0,10,0.0,-0.0,0.1,17,32482.581909586726,0.1,1.57542003E9,,,,0,,6,4.0,1.57542003E9
Raw,1944832894,681600000000,18,0.0,-1295443066400251648,0.0,333.564095198152,-360.10413645654955,0.0,4,21,0.0,0,0,10,0.0,-0.0,0.1,17,19711.956383699395,0.1,1.57542003E9,,,,0,,1,4.0,1.57542003E9
Raw,1944832894,681600000000,18,0.0,-1295443066400251648,0.0,333.564095198152,-360.10413645654955,0.0,4,35,0.0,0,0,10,0.0,-0.0,0.1,16,0.0,0.1,1.56109798E9,,,,0,,5,4.0,1.56109798E9
Raw,1944832894,681600000000,18,0.0,-1295443066400251648,0.0,333.564095198152,-360.10413645654955,0.0,4,1,0.0,0,0,10,0.0,-0.0,0.1,16,0.0,0.1,1.56109798E9,,,,0,,5,4.0,1.56109798E9
Raw,1944832894,681600000000,18,0.0,-1295443066400251648,0.0,333.564095198152,-360.10413645654955,0.0,4,2,0.0,0,0,10,0.0,-0.0,0.1,16,0.0,0.1,1.56109798E9,,,,0,,5,4.0,1.56109798E9
Raw,1944832894,681600000000,18,0.0,-1295443066400251648,0.0,333.564095198152,-360.10413645654955,0.0,4,3,0.0,0,0,10,0.0,-0.0,0.1,16,0.0,0.1,1.56109798E9,,,,0,,5,4.0,1.56109798E9
Raw,1944832894,681600000000,18,0.0,-1295443066400251648,0.0,333.564095198152,-360.10413645654955,0.0,4,4,0.0,0,0,10,0.0,-0.0,0.1,16,0.0,0.1,1.56109798E9,,,,0,,5,4.0,1.56109798E9
Raw,1944832894,681600000000,18,0.0,-1295443066400251648,0.0,333.564095198152,-360.10413645654955,0.0,4,5,0.0,0,0,10,0.0,-0.0,0.1,16,0.0,0.1,1.56109798E9,,,,0,,5,4.0,1.56109798E9
Raw,1944832894,681600000000,18,0.0,-1295443066400251648,0.0,333.564095198152,-360.10413645654955,0.0,4,19,0.0,16399,566947923616332,7,23.0,-493.03736304417464,0.05,17,1.105179473485892E8,0.1,1.57542003E9,,,,2,,1,4.0,1.57542003E9
Raw,1944832894,681600000000,18,0.0,-1295443066400251648,0.0,333.564095198152,-360.10413645654955,0.0,4,30,0.0,3,5217028,34,15.0,394.59884782368243,0.5,17,788.7541523374432,0.1,1.57542003E9,,,,2,,1,4.0,1.57542003E9
Raw,1944832894,681600000000,18,0.0,-1295443066400251648,0.0,333.564095198152,-360.10413645654955,0.0,4,9,0.0,35,10311600,881,16.0,-628.4698943464573,0.5,17,3.116253107972896E7,0.1,1.60087501E9,,,,0,,3,4.0,1.60087501E9
Raw,1944832894,681600000000,18,0.0,-1295443066400251648,0.0,333.564095198152,-360.10413645654955,0.0,4,12,0.0,16399,566933922250770,6,29.0,-342.0878874061686,0.030000001144409223,17,1.1061678738189963E8,0.1,1.56109798E9,,,,2,,5,4.0,1.56109798E9
Raw,1944832894,681600000000,18,0.0,-1295443066400251648,0.0,333.564095198152,-360.10413645654955,0.0,4,1,0.0,3,8742180,6,19.0,421.3367917302721,0.030000001144409223,16,0.0,0.1,1.57542003E9,,,,0,,1,4.0,1.57542003E9
Raw,1944832894,681600000000,18,0.0,-1295443066400251648,0.0,333.564095198152,-360.10413645654955,0.0,4,3,0.0,3,7202780,52,14.0,-375.8626566745475,0.5,17,-1884.5122204675397,0.1,1.57542003E9,,,,1,,1,4.0,1.57542003E9
Raw,1944832894,681600000000,18,0.0,-1295443066400251648,0.0,333.564095198152,-360.10413645654955,0.0,4,6,0.0,3,2910136,13,18.0,-665.9407715732582,0.30000000715255754,17,-1330.8887419838047,0.1,1.57542003E9,,,,1,,1,4.0,1.57542003E9
Raw,1944832895,681600000000,18,0.0,-1295443066400251648,0.0,333.564095198152,-360.10413645654955,0.0,4,7,0.0,3,510822,125,15.0,546.580195270495,0.5,17,82959.73191641465,0.1,1.57542003E9,,,,0,,1,4.0,1.57542003E9
Raw,1944832895,681600000000,18,0.0,-1295443066400251648,0.0,333.564095198152,-360.10413645654955,0.0,4,8,0.0,3,16814013,101,9.0,315.4791328033108,0.30000000715255754,17,4721.568118895175,0.1,1.57542003E9,,,,0,,1,4.0,1.57542003E9
Raw,1944832895,681600000000,18,0.0,-1295443066400251648,0.0,333.564095198152,-360.10413645654955,0.0,4,14,0.0,3,12726276,125,9.0,-243.67304746620684,0.5,17,-16389.412926856043,0.1,1.57542003E9,,,,0,,1,4.0,1.57542003E9
Raw,1944832895,681600000000,18,0.0,-1295443066400251648,0.0,333.564095198152,-360.10413645654955,0.0,4,22,0.0,3,5197171,81,17.0,-0.4295690535604572,0.30000000715255754,17,-39.361047241858024,0.1,1.57542003E9,,,,1,,1,4.0,1.57542003E9
Raw,1944832895,681600000000,18,0.0,-1295443066400251648,0.0,333.564095198152,-360.10413645654955,0.0,4,22,0.0,3,15612276,201,12.0,-578.5842931523065,0.5,17,-3458.652479336843,0.1,1.56109798E9,,,,1,,5,4.0,1.56109798E9
Raw,1944832895,681600000000,18,0.0,-1295443066400251648,0.0,333.564095198152,-360.10413645654955,0.0,4,24,0.0,16399,566933923159657,6,28.0,-232.71524798208438,0.030000001144409223,17,1.1067426091098157E8,0.1,1.56109798E9,,,,2,,5,4.0,1.56109798E9
Raw,1944832895,681600000000,18,0.0,-1295443066400251648,0.0,333.564095198152,-360.10413645654955,0.0,4,26,0.0,3,5467189,6,27.0,298.24156009459784,0.030000001144409223,17,1.1153946477648161E8,0.1,1.56109798E9,,,,2,,5,4.0,1.56109798E9
Raw,1944832895,681600000000,18,0.0,-1295443066400251648,0.0,333.564095198152,-360.10413645654955,0.0,4,17,0.0,16399,566947927065289,6,29.0,-301.2761951156522,0.030000001144409223,17,-48530.74303089752,0.1,1.57542003E9,,,,2,,1,4.0,1.57542003E9
Raw,1944832895,681600000000,18,0.0,-1295443066400251648,0.0,333.564095198152,-360.10413645654955,0.0,4,193,0.0,3,13688942,125,12.0,-170.29566609458666,0.5,17,-2408.2488850861355,0.1,1.57542003E9,,,,0,,4,4.0,1.57542003E9
Raw,1944832895,681600000000,18,0.0,-1295443066400251648,0.0,333.564095198152,-360.10413645654955,0.0,4,194,0.0,3,17648042,201,15.0,-159.3253086548715,0.5,17,-12464.056932705194,0.1,1.57542003E9,,,,0,,4,4.0,1.57542003E9
Raw,1944832895,681600000000,18,0.0,-1295443066400251648,0.0,333.564095198152,-360.10413645654955,0.0,4,19,0.0,35,12713466,206,17.0,-106.87214599300722,0.30000000715255754,17,-5395.796777862956,0.1,1.60368755E9,,,,1,,3,4.0,1.60368755E9
Raw,1944832895,681600000000,18,0.0,-1295443066400251648,0.0,333.564095198152,-360.10413645654955,0.0,4,195,0.0,3,8698141,52,16.0,-106.49701369974693,0.5,17,-5766.805894216663,0.1,1.57542003E9,,,,1,,4,4.0,1.57542003E9
Raw,1944832895,681600000000,18,0.0,-1295443066400251648,0.0,333.564095198152,-360.10413645654955,0.0,4,25,0.0,3072,16204914,11,16.0,-493.64096023283844,0.5,17,-116721.36227162917,0.1,1.17645005E9,,,,2,,6,4.0,1.17645005E9
Raw,1944832895,681600000000,18,0.0,-1295443066400251648,0.0,333.564095198152,-360.10413645654955,0.0,4,18,0.0,35,10177791,551,9.0,299.5419626302459,0.5,17,6.2201060457395785E7,0.1,1.60031245E9,,,,0,,3,4.0,1.60031245E9
Raw,1944832896,681600000000,18,0.0,-1295443066400251648,0.0,333.564095198152,-360.10413645654955,0.0,4,19,0.0,3,16844240,201,15.0,-255.18176773345112,0.5,17,-22079.337272790544,0.1,1.56109798E9,,,,1,,5,4.0,1.56109798E9
Raw,1944832896,681600000000,18,0.0,-1295443066400251648,0.0,333.564095198152,-360.10413645654955,0.0,4,16,0.0,35,15241894,124,18.0,123.39455114743613,0.30000000715255754,17,2.6812394398423514E8,0.1,1.60143744E9,,,,1,,3,4.0,1.60143744E9
Raw,1944832896,681600000000,18,0.0,-1295443066400251648,0.0,333.564095198152,-360.10413645654955,0.0,4,15,0.0,35,5588375,551,11.0,696.8533093162232,0.5,17,1.5507611515759198E7,0.1,1.602E9,,,,0,,3,4.0,1.602E9
Raw,1944832896,681600000000,18,0.0,-1295443066400251648,0.0,333.564095198152,-360.10413645654955,0.0,4,8,0.0,3,18606214,101,16.0,-163.2185156951977,0.5,17,-46634.82634425064,0.1,1.56109798E9,,,,1,,5,4.0,1.56109798E9
Raw,1944832896,681600000000,18,0.0,-1295443066400251648,0.0,333.564095198152,-360.10413645654955,0.0,4,25,0.0,3072,16204914,11,20.0,-493.17445655455117,0.30000000715255754,17,-49183.03733874512,0.1,1.57542003E9,,,,0,,6,4.0,1.57542003E9
Raw,1944832896,681600000000,18,0.0,-1295443066400251648,0.0,333.564095198152,-360.10413645654955,0.0,4,3,0.0,35,2271502,551,10.0,-555.2969296409616,0.5,17,2.6646820219737165E7,0.1,1.60481254E9,,,,0,,3,4.0,1.60481254E9
Raw,1944832896,681600000000,18,0.0,-1295443066400251648,0.0,333.564095198152,-360.10413645654955,0.0,4,20,0.0,35,1618443,881,12.0,-551.6560349203729,0.5,17,2302062.1613408085,0.1,1.60312499E9,,,,0,,3,4.0,1.60312499E9
Raw,1944832896,681600000000,18,0.0,-1295443066400251648,0.0,333.564095198152,-360.10413645654955,0.0,4,13,0.0,7,5875628164,9,21.0,-247.11219980306691,0.30000000715255754,17,-31911.791307323663,0.1,1.56109798E9,,,,2,,5,4.0,1.56109798E9
Raw,1944832896,681600000000,18,0.0,-1295443066400251648,0.0,333.564095198152,-360.10413645654955,0.0,4,11,0.0,3072,27260222,101,17.0,-210.449177241281,0.30000000715255754,17,1.1069889739099838E8,0.1,1.57542003E9,,,,0,,6,4.0,1.57542003E9
NMEA,$GPGSV,3,2,12,08,08,081,09,14,78,344,09,17,44,310,29,19,26,289,23*7A
,1611408530004
NMEA,$GPGSV,3,3,12,21,20,043,,22,36,075,17,28,68,336,,30,33,214,15*7F
,1611408530004
NMEA,$GLGSV,3,1,10,66,06,046,,67,12,094,10,68,01,141,,73,39,320,16*6F
,1611408530004
NMEA,$GLGSV,3,2,10,79,22,166,11,80,69,224,18,81,01,049,,82,39,018,09*65
,1611408530004
NMEA,$GLGSV,3,3,10,83,51,305,17,84,11,251,12*62
,1611408530004
NMEA,$BDGSV,4,1,16,201,42,130,,202,40,228,,203,54,187,,204,30,115,*6F
,1611408530004
NMEA,$BDGSV,4,2,16,205,20,249,,207,77,104,,208,75,216,16,210,76,331,*6A
,1611408530004
NMEA,$BDGSV,4,3,16,212,37,280,29,213,47,217,21,219,18,079,15,222,19,133,12*69
,1611408530004
NMEA,$BDGSV,4,4,16,224,47,288,28,226,50,205,27,234,14,266,,235,42,041,*64
,1611408530004
NMEA,$QZGSV,1,1,03,193,20,136,12,194,45,152,15,195,65,054,16*6F
,1611408530004
NMEA,$GAGSV,3,1,09,111,62,267,17,112,51,029,,121,05,,,124,79,176,*50
,1611408530004
NMEA,$GAGSV,3,2,09,125,40,317,20,131,28,147,,133,03,046,,136,15,238,*67
,1611408530004
NMEA,$GAGSV,3,3,09,125,40,317,16,1*7C
,1611408530004
NMEA,$GPRMC,132850.00,A,3030.723538,N,11424.419075,E,000.0,087.4,230121,,E,A*1A
,1611408530004
Fix,gps,30.512066,114.406974,31.748004,0.000000,4.000000,1611408531000
NMEA,$GPGGA,132851.00,3030.723958,N,11424.418453,E,1,19,0.7,31.7,M,,M,,*4B
,1611408531003
NMEA,$GNGSA,A,3,1,3,6,7,8,14,17,19,22,30,208,212,1.4,0.7,1.3*14
,1611408531003
NMEA,$GPGSA,A,3,1,3,6,7,8,14,17,19,22,30,,,1.4,0.7,1.3*01
,1611408531003
NMEA,$GPGSA,A,3,,,,,,,,,,,,,1.4,0.7,1.3,8*26
,1611408531003
NMEA,$GLGSA,A,3,67,73,79,80,82,83,84,,,,,,1.4,0.7,1.3*20
,1611408531003
NMEA,$BDGSA,A,3,208,212,213,219,222,224,226,,,,,,1.4,0.7,1.3*12
,1611408531003
NMEA,$BDGSA,A,3,,,,,,,,,,,,,1.4,0.7,1.3,7*38
,1611408531003
NMEA,$GAGSA,A,3,111,125,,,,,,,,,,,1.4,0.7,1.3*24
,1611408531003
NMEA,$GAGSA,A,3,125,,,,,,,,,,,,1.4,0.7,1.3,1*08
,1611408531003
NMEA,$QZGSA,A,3,193,194,195,,,,,,,,,,1.4,0.7,1.3*14
,1611408531003
NMEA,$PJGSA,A,3,,,,,,,,,,,,,1.4,0.7,1.3*3F
,1611408531003
NMEA,$GPGSV,3,1,12,01,41,037,15,03,40,109,14,06,25,228,18,07,13,184,13*7C
,1611408531003
Raw,1944833935,682600000000,18,0.0,-1295443066400251904,0.0,333.564095198152,-360.31336426266535,0.0,4,7,0.0,0,0,10,0.0,-0.0,0.1,17,-11613.202668856722,0.1,1.56109798E9,,,,0,,5,0.0,1.56109798E9
Raw,1944833935,682600000000,18,0.0,-1295443066400251904,0.0,333.564095198152,-360.31336426266535,0.0,4,34,0.0,0,0,10,0.0,-0.0,0.1,16,0.0,0.1,1.56109798E9,,,,0,,5,0.0,1.56109798E9
Raw,1944833935,682600000000,18,0.0,-1295443066400251904,0.0,333.564095198152,-360.31336426266535,0.0,4,28,0.0,0,0,10,0.0,-0.0,0.1,17,-734.9205018973862,0.1,1.57542003E9,,,,0,,1,0.0,1.57542003E9
Raw,1944833935,682600000000,18,0.0,-1295443066400251904,0.0,333.564095198152,-360.31336426266535,0.0,4,2,0.0,0,0,10,0.0,-0.0,0.1,17,-2968.44406899215,0.1,1.59975002E9,,,,0,,3,0.0,1.59975002E9
Raw,1944833936,682600000000,18,0.0,-1295443066400251904,0.0,333.564095198152,-360.31336426266535,0.0,4,12,0.0,0,0,10,0.0,-0.0,0.1,17,17064.72889753314,0.1,1.57542003E9,,,,0,,6,0.0,1.57542003E9
Raw,1944833936,682600000000,18,0.0,-1295443066400251904,0.0,333.564095198152,-360.31336426266535,0.0,4,24,0.0,0,0,10,0.0,-0.0,0.1,17,-1409.932040897469,0.1,1.57542003E9,,,,0,,6,0.0,1.57542003E9
Raw,1944833936,682600000000,18,0.0,-1295443066400251904,0.0,333.564095198152,-360.31336426266535,0.0,4,10,0.0,0,0,10,0.0,-0.0,0.1,17,-35994.42748922845,0.1,1.56109798E9,,,,0,,5,0.0,1.56109798E9
Raw,1944833936,682600000000,18,0.0,-1295443066400251904,0.0,333.564095198152,-360.31336426266535,0.0,4,31,0.0,0,0,10,0.0,-0.0,0.1,17,32482.581909586726,0.1,1.57542003E9,,,,0,,6,0.0,1.57542003E9
Raw,1944833936,682600000000,18,0.0,-1295443066400251904,0.0,333.564095198152,-360.31336426266535,0.0,4,21,0.0,0,0,10,0.0,-0.0,0.1,17,19711.956383699395,0.1,1.57542003E9,,,,0,,1,0.0,1.57542003E9
Raw,1944833936,682600000000,18,0.0,-1295443066400251904,0.0,333.564095198152,-360.31336426266535,0.0,4,35,0.0,0,0,10,0.0,-0.0,0.1,16,0.0,0.1,1.56109798E9,,,,0,,5,0.0,1.56109798E9
Raw,1944833936,682600000000,18,0.0,-1295443066400251904,0.0,333.564095198152,-360.31336426266535,0.0,4,1,0.0,0,0,10,0.0,-0.0,0.1,16,0.0,0.1,1.56109798E9,,,,0,,5,0.0,1.56109798E9
Raw,1944833936,682600000000,18,0.0,-1295443066400251904,0.0,333.564095198152,-360.31336426266535,0.0,4,2,0.0,0,0,10,0.0,-0.0,0.1,16,0.0,0.1,1.56109798E9,,,,0,,5,0.0,1.56109798E9
Raw,1944833936,682600000000,18,0.0,-1295443066400251904,0.0,333.564095198152,-360.31336426266535,0.0,4,3,0.0,0,0,10,0.0,-0.0,0.1,16,0.0,0.1,1.56109798E9,,,,0,,5,0.0,1.56109798E9
Raw,1944833936,682600000000,18,0.0,-1295443066400251904,0.0,333.564095198152,-360.31336426266535,0.0,4,4,0.0,0,0,10,0.0,-0.0,0.1,16,0.0,0.1,1.56109798E9,,,,0,,5,0.0,1.56109798E9
Raw,1944833936,682600000000,18,0.0,-1295443066400251904,0.0,333.564095198152,-360.31336426266535,0.0,4,5,0.0,0,0,10,0.0,-0.0,0.1,16,0.0,0.1,1.56109798E9,,,,0,,5,0.0,1.56109798E9
Raw,1944833937,682600000000,18,0.0,-1295443066400251904,0.0,333.564095198152,-360.31336426266535,0.0,4,19,0.0,16399,566948923617963,11,22.0,-493.30566620509256,0.05,17,1.1051745425624268E8,0.1,1.57542003E9,,,,1,,1,0.0,1.57542003E9
Raw,1944833937,682600000000,18,0.0,-1295443066400251904,0.0,333.564095198152,-360.31336426266535,0.0,4,30,0.0,3,5215693,52,14.0,394.37366388031,0.5,17,1183.3698763957257,0.1,1.57542003E9,,,,1,,1,0.0,1.57542003E9
Raw,1944833937,682600000000,18,0.0,-1295443066400251904,0.0,333.564095198152,-360.31336426266535,0.0,4,9,0.0,35,10313700,881,17.0,-628.0957500730901,0.5,17,3.227547794971296E7,0.1,1.60087501E9,,,,0,,3,0.0,1.60087501E9
Raw,1944833937,682600000000,18,0.0,-1295443066400251904,0.0,333.564095198152,-360.31336426266535,0.0,4,12,0.0,16399,566934922251912,6,28.0,-341.99854872424373,0.030000001144409223,17,1.1061644534950434E8,0.1,1.56109798E9,,,,2,,5,0.0,1.56109798E9
Raw,1944833937,682600000000,18,0.0,-1295443066400251904,0.0,333.564095198152,-360.31336426266535,0.0,4,1,0.0,3,8740721,334,15.0,421.91241150712074,0.5,18,-0.08870791088079576,0.1,1.57542003E9,,,,0,,1,0.0,1.57542003E9
Raw,1944833937,682600000000,18,0.0,-1295443066400251904,0.0,333.564095198152,-360.31336426266535,0.0,4,3,0.0,3,7204031,34,14.0,-375.1574701821898,0.5,17,-2260.4374525757585,0.1,1.57542003E9,,,,2,,1,0.0,1.57542003E9
Raw,1944833938,682600000000,18,0.0,-1295443066400251904,0.0,333.564095198152,-360.31336426266535,0.0,4,6,0.0,3,2912357,9,18.0,-666.656347328941,0.30000000715255754,17,-1997.1928987858062,0.1,1.57542003E9,,,,2,,1,0.0,1.57542003E9
Raw,1944833938,682600000000,18,0.0,-1295443066400251904,0.0,333.564095198152,-360.31336426266535,0.0,4,7,0.0,3,509001,125,13.0,545.7449513456069,0.5,17,83505.89175794758,0.1,1.57542003E9,,,,0,,1,0.0,1.57542003E9
Raw,1944833938,682600000000,18,0.0,-1295443066400251904,0.0,333.564095198152,-360.31336426266535,0.0,4,8,0.0,3,16812951,101,9.0,316.2851572880535,0.30000000715255754,17,5037.342886097719,0.1,1.57542003E9,,,,0,,1,0.0,1.57542003E9
Raw,1944833938,682600000000,18,0.0,-1295443066400251904,0.0,333.564095198152,-360.31336426266535,0.0,4,14,0.0,3,12727099,125,9.0,-243.96134226435032,0.5,17,-16633.385948573923,0.1,1.57542003E9,,,,0,,1,0.0,1.57542003E9
Raw,1944833938,682600000000,18,0.0,-1295443066400251904,0.0,333.564095198152,-360.31336426266535,0.0,4,22,0.0,3,5197189,42,18.0,-0.11943008884498246,0.30000000715255754,17,-39.66429150709193,0.1,1.57542003E9,,,,1,,1,0.0,1.57542003E9
Raw,1944833938,682600000000,18,0.0,-1295443066400251904,0.0,333.564095198152,-360.31336426266535,0.0,4,22,0.0,3,15614193,201,13.0,-579.2399074490075,0.5,17,-4037.628560242118,0.1,1.56109798E9,,,,1,,5,0.0,1.56109798E9
Raw,1944833938,682600000000,18,0.0,-1295443066400251904,0.0,333.564095198152,-360.31336426266535,0.0,4,24,0.0,16399,566934923160431,6,27.0,-233.06781168561213,0.030000001144409223,17,1.1067402800614981E8,0.1,1.56109798E9,,,,2,,5,0.0,1.56109798E9
Raw,1944833938,682600000000,18,0.0,-1295443066400251904,0.0,333.564095198152,-360.31336426266535,0.0,4,26,0.0,3,5466185,7,26.0,298.19893609606464,0.05,17,1.1153976302298234E8,0.1,1.56109798E9,,,,2,,5,0.0,1.56109798E9
Raw,1944833938,682600000000,18,0.0,-1295443066400251904,0.0,333.564095198152,-360.31336426266535,0.0,4,17,0.0,16399,566948927066295,6,28.0,-301.30403822521737,0.030000001144409223,17,-48832.04074893295,0.1,1.57542003E9,,,,2,,1,0.0,1.57542003E9
Raw,1944833938,682600000000,18,0.0,-1295443066400251904,0.0,333.564095198152,-360.31336426266535,0.0,4,193,0.0,3,13689530,125,9.0,-170.76194598888372,0.5,17,-2578.8440446483496,0.1,1.57542003E9,,,,0,,4,0.0,1.57542003E9
Raw,1944833939,682600000000,18,0.0,-1295443066400251904,0.0,333.564095198152,-360.31336426266535,0.0,4,194,0.0,3,17648570,201,15.0,-158.95032535573017,0.5,17,-12623.263048776427,0.1,1.57542003E9,,,,1,,4,0.0,1.57542003E9
Raw,1944833939,682600000000,18,0.0,-1295443066400251904,0.0,333.564095198152,-360.31336426266535,0.0,4,19,0.0,35,12713834,881,16.0,-107.53456930870641,0.5,17,-5503.5598832371425,0.1,1.60368755E9,,,,1,,3,0.0,1.60368755E9
Raw,1944833939,682600000000,18,0.0,-1295443066400251904,0.0,333.564095198152,-360.31336426266535,0.0,4,195,0.0,3,8698501,201,16.0,-106.73093182536698,0.5,17,-5873.333421612906,0.1,1.57542003E9,,,,1,,4,0.0,1.57542003E9
Raw,1944833939,682600000000,18,0.0,-1295443066400251904,0.0,333.564095198152,-360.31336426266535,0.0,4,25,0.0,3072,16206561,9,17.0,-493.60567718665425,0.30000000715255754,17,-117215.0382425427,0.1,1.17645005E9,,,,2,,6,3.0,1.17645005E9
Raw,1944833939,682600000000,18,0.0,-1295443066400251904,0.0,333.564095198152,-360.31336426266535,0.0,4,18,0.0,35,10176803,551,9.0,302.7004689149411,0.5,17,6.342070274233334E7,0.1,1.60031245E9,,,,0,,3,0.0,1.60031245E9
Raw,1944833939,682600000000,18,0.0,-1295443066400251904,0.0,333.564095198152,-360.31336426266535,0.0,4,19,0.0,3,16845103,161,17.0,-254.67649196588133,0.30000000715255754,17,-22334.188818637536,0.1,1.56109798E9,,,,1,,5,0.0,1.56109798E9
Raw,1944833939,682600000000,18,0.0,-1295443066400251904,0.0,333.564095198152,-360.31336426266535,0.0,4,16,0.0,35,15241474,41,18.0,124.4731426966023,0.30000000715255754,17,2.691319505691907E8,0.1,1.60143744E9,,,,2,,3,0.0,1.60143744E9
Raw,1944833939,682600000000,18,0.0,-1295443066400251904,0.0,333.564095198152,-360.31336426266535,0.0,4,15,0.0,35,5586072,551,13.0,697.3457330092255,0.5,17,1.5824101125431674E7,0.1,1.602E9,,,,0,,3,0.0,1.602E9
Raw,1944833939,682600000000,18,0.0,-1295443066400251904,0.0,333.564095198152,-360.31336426266535,0.0,4,8,0.0,3,18606752,52,16.0,-162.93543502846487,0.5,17,-46797.814893893075,0.1,1.56109798E9,,,,1,,5,0.0,1.56109798E9
Raw,1944833939,682600000000,18,0.0,-1295443066400251904,0.0,333.564095198152,-360.31336426266535,0.0,4,25,0.0,3072,16206563,11,20.0,-493.7901409080793,0.30000000715255754,17,-49676.41392590676,0.1,1.57542003E9,,,,0,,6,0.0,1.57542003E9
Raw,1944833940,682600000000,18,0.0,-1295443066400251904,0.0,333.564095198152,-360.31336426266535,0.0,4,3,0.0,35,2273346,551,10.0,-554.8340589212631,0.5,17,2.775710812805433E7,0.1,1.60481254E9,,,,0,,3,0.0,1.60481254E9
Raw,1944833940,682600000000,18,0.0,-1295443066400251904,0.0,333.564095198152,-360.31336426266535,0.0,4,20,0.0,35,1620303,881,9.0,-554.6885064675944,0.5,17,2406698.7938917014,0.1,1.60312499E9,,,,0,,3,0.0,1.60312499E9
Raw,1944833940,682600000000,18,0.0,-1295443066400251904,0.0,333.564095198152,-360.31336426266535,0.0,4,13,0.0,7,875628994,9,21.0,-247.0946063418272,0.30000000715255754,17,-32158.950866979267,0.1,1.56109798E9,,,,2,,5,0.0,1.56109798E9
Raw,1944833940,682600000000,18,0.0,-1295443066400251904,0.0,333.564095198152,-360.31336426266535,0.0,4,11,0.0,3072,27260927,126,15.0,-211.08408376451627,0.5,17,1.1069868673061481E8,0.1,1.57542003E9,,,,0,,6,0.0,1.57542003E9
NMEA,$GPGSV,3,2,12,08,08,081,09,14,78,344,09,17,44,310,28,19,26,289,22*7A
,1611408531003
NMEA,$GPGSV,3,3,12,21,20,043,,22,36,075,18,28,68,336,,30,33,214,14*71
,1611408531003
NMEA,$GLGSV,3,1,10,66,06,046,,67,12,094,10,68,01,141,,73,39,320,17*6E
,1611408531003
NMEA,$GLGSV,3,2,10,79,22,166,13,80,69,224,18,81,01,049,,82,39,018,09*67
,1611408531003
NMEA,$GLGSV,3,3,10,83,51,305,16,84,11,251,09*69
,1611408531003
NMEA,$BDGSV,4,1,16,201,42,130,,202,40,228,,203,54,187,,204,30,115,*6F
,1611408531003
NMEA,$BDGSV,4,2,16,205,20,249,,207,77,104,,208,75,216,16,210,76,331,*6A
,1611408531003
NMEA,$BDGSV,4,3,16,212,37,280,28,213,47,217,21,219,18,079,17,222,19,133,13*6B
,1611408531003
NMEA,$BDGSV,4,4,16,224,47,288,27,226,50,205,26,234,14,266,,235,42,041,*6A
,1611408531003
NMEA,$QZGSV,1,1,03,193,20,136,09,194,45,152,15,195,65,054,16*65
,1611408531003
NMEA,$GAGSV,3,1,09,111,62,267,15,112,51,029,,121,05,,,124,79,176,*52
,1611408531003
NMEA,$GAGSV,3,2,09,125,40,317,20,131,28,147,,133,03,046,,136,15,238,*67
,1611408531003
NMEA,$GAGSV,3,3,09,125,40,317,17,1*7D
,1611408531003
NMEA,$GPRMC,132851.00,A,3030.723958,N,11424.418453,E,000.0,087.4,230121,,E,A*10
,1611408531003
Fix,gps,30.512073,114.406959,31.748004,0.000000,4.000000,1611408532000
NMEA,$GPGGA,132852.00,3030.724384,N,11424.417524,E,1,20,0.7,31.7,M,,M,,*40
,1611408532003
NMEA,$GNGSA,A,3,1,3,6,7,8,14,17,19,21,22,28,30,1.4,0.7,1.3*16
,1611408532003
NMEA,$GPGSA,A,3,1,3,6,7,8,14,17,19,21,22,28,30,1.4,0.7,1.3*08
,1611408532003
NMEA,$GPGSA,A,3,,,,,,,,,,,,,1.4,0.7,1.3,8*26
,1611408532003
NMEA,$GLGSA,A,3,67,73,79,80,82,83,84,,,,,,1.4,0.7,1.3*20
,1611408532003
NMEA,$BDGSA,A,3,208,212,213,219,222,224,226,,,,,,1.4,0.7,1.3*12
,1611408532003
NMEA,$BDGSA,A,3,,,,,,,,,,,,,1.4,0.7,1.3,7*38
,1611408532003
NMEA,$GAGSA,A,3,111,125,,,,,,,,,,,1.4,0.7,1.3*24
,1611408532003
NMEA,$GAGSA,A,3,125,,,,,,,,,,,,1.4,0.7,1.3,1*08
,1611408532003
Raw,1944834932,683600000000,18,0.0,-1295443066400252160,0.0,333.564095198152,-360.02896407823636,0.0,4,7,0.0,0,0,10,0.0,-0.0,0.1,17,-11613.202668856722,0.1,1.56109798E9,,,,0,,5,2.0,1.56109798E9
Raw,1944834932,683600000000,18,0.0,-1295443066400252160,0.0,333.564095198152,-360.02896407823636,0.0,4,34,0.0,0,0,10,0.0,-0.0,0.1,16,0.0,0.1,1.56109798E9,,,,0,,5,2.0,1.56109798E9
Raw,1944834932,683600000000,18,0.0,-1295443066400252160,0.0,333.564095198152,-360.02896407823636,0.0,4,2,0.0,0,0,10,0.0,-0.0,0.1,17,-2968.44406899215,0.1,1.59975002E9,,,,0,,3,2.0,1.59975002E9
Raw,1944834932,683600000000,18,0.0,-1295443066400252160,0.0,333.564095198152,-360.02896407823636,0.0,4,12,0.0,0,0,10,0.0,-0.0,0.1,17,17064.72889753314,0.1,1.57542003E9,,,,0,,6,2.0,1.57542003E9
Raw,1944834932,683600000000,18,0.0,-1295443066400252160,0.0,333.564095198152,-360.02896407823636,0.0,4,24,0.0,0,0,10,0.0,-0.0,0.1,17,-1409.932040897469,0.1,1.57542003E9,,,,0,,6,2.0,1.57542003E9
Raw,1944834932,683600000000,18,0.0,-1295443066400252160,0.0,333.564095198152,-360.02896407823636,0.0,4,10,0.0,0,0,10,0.0,-0.0,0.1,17,-35994.42748922845,0.1,1.56109798E9,,,,0,,5,2.0,1.56109798E9
Raw,1944834932,683600000000,18,0.0,-1295443066400252160,0.0,333.564095198152,-360.02896407823636,0.0,4,31,0.0,0,0,10,0.0,-0.0,0.1,17,32482.581909586726,0.1,1.57542003E9,,,,0,,6,2.0,1.57542003E9
Raw,1944834932,683600000000,18,0.0,-1295443066400252160,0.0,333.564095198152,-360.02896407823636,0.0,4,35,0.0,0,0,10,0.0,-0.0,0.1,16,0.0,0.1,1.56109798E9,,,,0,,5,2.0,1.56109798E9
Raw,1944834932,683600000000,18,0.0,-1295443066400252160,0.0,333.564095198152,-360.02896407823636,0.0,4,1,0.0,0,0,10,0.0,-0.0,0.1,16,0.0,0.1,1.56109798E9,,,,0,,5,2.0,1.56109798E9
Raw,1944834933,683600000000,18,0.0,-1295443066400252160,0.0,333.564095198152,-360.02896407823636,0.0,4,2,0.0,0,0,10,0.0,-0.0,0.1,16,0.0,0.1,1.56109798E9,,,,0,,5,2.0,1.56109798E9
Raw,1944834933,683600000000,18,0.0,-1295443066400252160,0.0,333.564095198152,-360.02896407823636,0.0,4,3,0.0,0,0,10,0.0,-0.0,0.1,16,0.0,0.1,1.56109798E9,,,,0,,5,2.0,1.56109798E9
Raw,1944834933,683600000000,18,0.0,-1295443066400252160,0.0,333.564095198152,-360.02896407823636,0.0,4,4,0.0,0,0,10,0.0,-0.0,0.1,16,0.0,0.1,1.56109798E9,,,,0,,5,2.0,1.56109798E9
Raw,1944834933,683600000000,18,0.0,-1295443066400252160,0.0,333.564095198152,-360.02896407823636,0.0,4,5,0.0,0,0,10,0.0,-0.0,0.1,16,0.0,0.1,1.56109798E9,,,,0,,5,2.0,1.56109798E9
Raw,1944834933,683600000000,18,0.0,-1295443066400252160,0.0,333.564095198152,-360.02896407823636,0.0,4,19,0.0,16399,566949923619608,9,21.0,-493.29593897419846,0.30000000715255754,17,1.1051696094390313E8,0.1,1.57542003E9,,,,2,,1,2.0,1.57542003E9
Raw,1944834933,683600000000,18,0.0,-1295443066400252160,0.0,333.564095198152,-360.02896407823636,0.0,4,30,0.0,3,5214374,201,13.0,396.02270536370304,0.5,17,1578.8880205577555,0.1,1.57542003E9,,,,0,,1,2.0,1.57542003E9
Raw,1944834933,683600000000,18,0.0,-1295443066400252160,0.0,333.564095198152,-360.02896407823636,0.0,4,9,0.0,35,10315802,616,18.0,-624.9520895049526,0.30000000715255754,17,3.338842646186111E7,0.1,1.60087501E9,,,,1,,3,2.0,1.60087501E9
Raw,1944834933,683600000000,18,0.0,-1295443066400252160,0.0,333.564095198152,-360.02896407823636,0.0,4,12,0.0,16399,566935922253052,6,28.0,-341.8797020218851,0.030000001144409223,17,1.1061610341466871E8,0.1,1.56109798E9,,,,2,,5,2.0,1.56109798E9
Raw,1944834933,683600000000,18,0.0,-1295443066400252160,0.0,333.564095198152,-360.02896407823636,0.0,4,1,0.0,3,8739330,334,15.0,422.2323706195627,0.5,17,421.83936841574024,0.1,1.57542003E9,,,,0,,1,2.0,1.57542003E9
Raw,1944834934,683600000000,18,0.0,-1295443066400252160,0.0,333.564095198152,-360.02896407823636,0.0,4,3,0.0,3,7205291,201,14.0,-375.6878249433942,0.5,17,-2635.6364624820203,0.1,1.57542003E9,,,,1,,1,2.0,1.57542003E9
Raw,1944834934,683600000000,18,0.0,-1295443066400252160,0.0,333.564095198152,-360.02896407823636,0.0,4,6,0.0,3,2914585,13,18.0,-667.5603671317268,0.30000000715255754,17,-2664.2342723707507,0.1,1.57542003E9,,,,1,,1,2.0,1.57542003E9
Raw,1944834934,683600000000,18,0.0,-1295443066400252160,0.0,333.564095198152,-360.02896407823636,0.0,4,7,0.0,3,507179,125,14.0,545.8172435448814,0.5,17,84051.46824709955,0.1,1.57542003E9,,,,0,,1,2.0,1.57542003E9
Raw,1944834934,683600000000,18,0.0,-1295443066400252160,0.0,333.564095198152,-360.02896407823636,0.0,4,8,0.0,3,16811883,9,9.0,317.4546520956704,0.30000000715255754,17,5354.070130943857,0.1,1.57542003E9,,,,0,,1,2.0,1.57542003E9
Raw,1944834934,683600000000,18,0.0,-1295443066400252160,0.0,333.564095198152,-360.02896407823636,0.0,4,14,0.0,3,12727918,125,9.0,-244.97020419426823,0.5,17,-16877.696745645415,0.1,1.57542003E9,,,,0,,1,2.0,1.57542003E9
Raw,1944834934,683600000000,18,0.0,-1295443066400252160,0.0,333.564095198152,-360.02896407823636,0.0,4,21,0.0,3,19157329,161,17.0,467.82547033770265,0.30000000715255754,16,0.0,0.1,1.57542003E9,,,,1,,1,2.0,1.57542003E9
Raw,1944834934,683600000000,18,0.0,-1295443066400252160,0.0,333.564095198152,-360.02896407823636,0.0,4,22,0.0,3,5197198,161,18.0,-0.1352666014707497,0.30000000715255754,17,-39.87752649269897,0.1,1.57542003E9,,,,1,,1,2.0,1.57542003E9
Raw,1944834934,683600000000,18,0.0,-1295443066400252160,0.0,333.564095198152,-360.02896407823636,0.0,4,28,0.0,3,10879010,161,17.0,-366.52745354783013,0.30000000715255754,16,0.0,0.1,1.57542003E9,,,,0,,1,2.0,1.57542003E9
Raw,1944834934,683600000000,18,0.0,-1295443066400252160,0.0,333.564095198152,-360.02896407823636,0.0,4,22,0.0,3,15616121,201,14.0,-580.7776503907262,0.5,17,-4617.617949513113,0.1,1.56109798E9,,,,1,,5,2.0,1.56109798E9
Raw,1944834934,683600000000,18,0.0,-1295443066400252160,0.0,333.564095198152,-360.02896407823636,0.0,4,24,0.0,16399,566935923161209,6,27.0,-232.90424289707087,0.030000001144409223,17,1.1067379503554212E8,0.1,1.56109798E9,,,,2,,5,2.0,1.56109798E9
Raw,1944834935,683600000000,18,0.0,-1295443066400252160,0.0,333.564095198152,-360.02896407823636,0.0,4,26,0.0,3,5465181,6,27.0,298.32148082442,0.030000001144409223,17,1.115400611552284E8,0.1,1.56109798E9,,,,2,,5,2.0,1.56109798E9
Raw,1944834935,683600000000,18,0.0,-1295443066400252160,0.0,333.564095198152,-360.02896407823636,0.0,4,17,0.0,16399,566949927067306,7,25.0,-301.5710028030182,0.05,17,-49133.468715060764,0.1,1.57542003E9,,,,2,,1,2.0,1.57542003E9
Raw,1944834935,683600000000,18,0.0,-1295443066400252160,0.0,333.564095198152,-360.02896407823636,0.0,4,193,0.0,3,13690104,125,9.0,-171.50619529832147,0.5,17,-2749.9021444921987,0.1,1.57542003E9,,,,0,,4,2.0,1.57542003E9
Raw,1944834935,683600000000,18,0.0,-1295443066400252160,0.0,333.564095198152,-360.02896407823636,0.0,4,194,0.0,3,17649103,34,15.0,-158.96091497097515,0.5,17,-12782.119028311416,0.1,1.57542003E9,,,,2,,4,2.0,1.57542003E9
Raw,1944834935,683600000000,18,0.0,-1295443066400252160,0.0,333.564095198152,-360.02896407823636,0.0,4,19,0.0,35,12714191,881,16.0,-108.56819590637502,0.5,17,-5611.178506492709,0.1,1.60368755E9,,,,0,,3,2.0,1.60368755E9
Raw,1944834935,683600000000,18,0.0,-1295443066400252160,0.0,333.564095198152,-360.02896407823636,0.0,4,195,0.0,3,8698853,42,18.0,-106.68817846784924,0.30000000715255754,17,-5980.049835800649,0.1,1.57542003E9,,,,1,,4,2.0,1.57542003E9
Raw,1944834935,683600000000,18,0.0,-1295443066400252160,0.0,333.564095198152,-360.02896407823636,0.0,4,25,0.0,3072,16208207,9,17.0,-493.9015275119762,0.30000000715255754,17,-117708.76135311821,0.1,1.17645005E9,,,,2,,6,-2.0,1.17645005E9
Raw,1944834935,683600000000,18,0.0,-1295443066400252160,0.0,333.564095198152,-360.02896407823636,0.0,4,18,0.0,35,10175769,551,9.0,308.038547431368,0.5,17,6.4640349401824355E7,0.1,1.60031245E9,,,,0,,3,2.0,1.60031245E9
Raw,1944834935,683600000000,18,0.0,-1295443066400252160,0.0,333.564095198152,-360.02896407823636,0.0,4,19,0.0,3,16845970,42,18.0,-254.5603880149752,0.30000000715255754,17,-22588.721381252104,0.1,1.56109798E9,,,,1,,5,2.0,1.56109798E9
Raw,1944834936,683600000000,18,0.0,-1295443066400252160,0.0,333.564095198152,-360.02896407823636,0.0,4,16,0.0,35,15241043,41,18.0,124.57869238961528,0.30000000715255754,17,2.7013995798274755E8,0.1,1.60143744E9,,,,2,,3,2.0,1.60143744E9
Raw,1944834936,683600000000,18,0.0,-1295443066400252160,0.0,333.564095198152,-360.02896407823636,0.0,4,15,0.0,35,5583749,551,13.0,696.6499995438165,0.5,17,1.6140590903408024E7,0.1,1.602E9,,,,0,,3,2.0,1.602E9
Raw,1944834936,683600000000,18,0.0,-1295443066400252160,0.0,333.564095198152,-360.02896407823636,0.0,4,8,0.0,3,18607288,42,17.0,-162.58299146682768,0.30000000715255754,17,-46960.681512004674,0.1,1.56109798E9,,,,1,,5,2.0,1.56109798E9
Raw,1944834936,683600000000,18,0.0,-1295443066400252160,0.0,333.564095198152,-360.02896407823636,0.0,4,25,0.0,3072,16208214,11,20.0,-493.98801891732404,0.30000000715255754,17,-50170.26372225646,0.1,1.57542003E9,,,,0,,6,2.0,1.57542003E9
Raw,1944834936,683600000000,18,0.0,-1295443066400252160,0.0,333.564095198152,-360.02896407823636,0.0,4,3,0.0,35,2275204,551,10.0,-555.26228217817,0.5,17,2.886739631652434E7,0.1,1.60481254E9,,,,0,,3,2.0,1.60481254E9
Raw,1944834936,683600000000,18,0.0,-1295443066400252160,0.0,333.564095198152,-360.02896407823636,0.0,4,20,0.0,35,1622183,881,9.0,-554.2809338636373,0.5,17,2511333.9656809513,0.1,1.60312499E9,,,,0,,3,2.0,1.60312499E9
Raw,1944834936,683600000000,18,0.0,-1295443066400252160,0.0,333.564095198152,-360.02896407823636,0.0,4,13,0.0,16399,566935875629817,7,24.0,-246.67481006423478,0.05,17,-32405.867408876027,0.1,1.56109798E9,,,,2,,5,2.0,1.56109798E9
Raw,1944834937,683600000000,18,0.0,-1295443066400252160,0.0,333.564095198152,-360.02896407823636,0.0,4,11,0.0,3072,27261632,126,12.0,-211.2931524447657,0.5,17,1.106984756530143E8,0.1,1.57542003E9,,,,0,,6,2.0,1.57542003E9
NMEA,$QZGSA,A,3,193,194,195,,,,,,,,,,1.4,0.7,1.3*14
,1611408532003
NMEA,$PJGSA,A,3,,,,,,,,,,,,,1.4,0.7,1.3*3F
,1611408532003
NMEA,$GPGSV,3,1,12,01,41,037,15,03,40,109,14,06,25,228,18,07,13,184,14*7B
,1611408532003
NMEA,$GPGSV,3,2,12,08,08,081,09,14,78,344,09,17,44,310,25,19,26,289,21*74
,1611408532003
NMEA,$GPGSV,3,3,12,21,20,043,17,22,36,075,18,28,68,336,17,30,33,214,13*76
,1611408532003
NMEA,$GLGSV,3,1,10,66,06,046,,67,12,094,10,68,01,141,,73,39,320,18*61
,1611408532003
NMEA,$GLGSV,3,2,10,79,22,166,13,80,69,224,18,81,01,049,,82,39,018,09*67
,1611408532003
NMEA,$GLGSV,3,3,10,83,51,305,16,84,11,251,09*69
,1611408532003
NMEA,$BDGSV,4,1,16,201,42,130,,202,40,228,,203,54,187,,204,30,115,*6F
,1611408532003
NMEA,$BDGSV,4,2,16,205,20,249,,207,77,105,,208,75,216,17,210,76,331,*6A
,1611408532003
NMEA,$BDGSV,4,3,16,212,37,280,28,213,47,217,24,219,18,079,18,222,19,133,14*66
,1611408532003
NMEA,$BDGSV,4,4,16,224,47,288,27,226,50,205,27,234,14,266,,235,42,041,*6B
,1611408532003
NMEA,$QZGSV,1,1,03,193,20,136,09,194,45,152,15,195,65,054,18*6B
,1611408532003
NMEA,$GAGSV,3,1,09,111,62,267,12,112,51,029,,121,05,,,124,79,176,*55
,1611408532003
NMEA,$GAGSV,3,2,09,125,40,317,20,131,28,147,,133,03,046,,136,15,238,*67
,1611408532003
NMEA,$GAGSV,3,3,09,125,40,317,17,1*7D
,1611408532003
NMEA,$GPRMC,132852.00,A,3030.724384,N,11424.417524,E,000.0,087.4,230121,,E,A*11
,1611408532003
Fix,gps,30.512079,114.406947,31.748004,0.000000,4.000000,1611408533000
NMEA,$GPGGA,132853.00,3030.724755,N,11424.416818,E,1,20,0.6,31.7,M,,M,,*4B
,1611408533003
NMEA,$GNGSA,A,3,1,3,6,7,17,19,21,22,28,30,208,212,1.4,0.6,1.2*20
,1611408533003
NMEA,$GPGSA,A,3,1,3,6,7,17,19,21,22,28,30,,,1.4,0.6,1.2*35
,1611408533003
NMEA,$GPGSA,A,3,,,,,,,,,,,,,1.4,0.6,1.2,8*26
,1611408533003
NMEA,$GLGSA,A,3,67,73,79,80,82,83,84,,,,,,1.4,0.6,1.2*20
,1611408533003
NMEA,$BDGSA,A,3,208,212,213,219,222,224,226,,,,,,1.4,0.6,1.2*12
,1611408533003
NMEA,$BDGSA,A,3,,,,,,,,,,,,,1.4,0.6,1.2,7*38
,1611408533003
NMEA,$GAGSA,A,3,111,125,,,,,,,,,,,1.4,0.6,1.2*24
,1611408533003
NMEA,$GAGSA,A,3,125,,,,,,,,,,,,1.4,0.6,1.2,1*08
,1611408533003
NMEA,$QZGSA,A,3,193,194,195,,,,,,,,,,1.4,0.6,1.2*14
,1611408533003
NMEA,$PJGSA,A,3,,,,,,,,,,,,,1.4,0.6,1.2*3F
,1611408533003
Raw,1944835934,684600000000,18,0.0,-1295443066400252672,0.0,333.564095198152,-360.05293296068595,0.0,4,7,0.0,0,0,10,0.0,-0.0,0.1,17,-11613.202668856722,0.1,1.56109798E9,,,,0,,5,2.0,1.56109798E9
Raw,1944835934,684600000000,18,0.0,-1295443066400252672,0.0,333.564095198152,-360.05293296068595,0.0,4,34,0.0,0,0,10,0.0,-0.0,0.1,16,0.0,0.1,1.56109798E9,,,,0,,5,2.0,1.56109798E9
Raw,1944835934,684600000000,18,0.0,-1295443066400252672,0.0,333.564095198152,-360.05293296068595,0.0,4,8,0.0,0,0,10,0.0,-0.0,0.1,17,5354.070130943857,0.1,1.57542003E9,,,,0,,1,2.0,1.57542003E9
Raw,1944835934,684600000000,18,0.0,-1295443066400252672,0.0,333.564095198152,-360.05293296068595,0.0,4,2,0.0,0,0,10,0.0,-0.0,0.1,17,-2968.44406899215,0.1,1.59975002E9,,,,0,,3,2.0,1.59975002E9
Raw,1944835934,684600000000,18,0.0,-1295443066400252672,0.0,333.564095198152,-360.05293296068595,0.0,4,14,0.0,0,0,10,0.0,-0.0,0.1,17,-16877.696745645415,0.1,1.57542003E9,,,,0,,1,2.0,1.57542003E9
Raw,1944835935,684600000000,18,0.0,-1295443066400252672,0.0,333.564095198152,-360.05293296068595,0.0,4,12,0.0,0,0,10,0.0,-0.0,0.1,17,17064.72889753314,0.1,1.57542003E9,,,,0,,6,2.0,1.57542003E9
Raw,1944835935,684600000000,18,0.0,-1295443066400252672,0.0,333.564095198152,-360.05293296068595,0.0,4,24,0.0,0,0,10,0.0,-0.0,0.1,17,-1409.932040897469,0.1,1.57542003E9,,,,0,,6,2.0,1.57542003E9
Raw,1944835935,684600000000,18,0.0,-1295443066400252672,0.0,333.564095198152,-360.05293296068595,0.0,4,10,0.0,0,0,10,0.0,-0.0,0.1,17,-35994.42748922845,0.1,1.56109798E9,,,,0,,5,2.0,1.56109798E9
Raw,1944835935,684600000000,18,0.0,-1295443066400252672,0.0,333.564095198152,-360.05293296068595,0.0,4,31,0.0,0,0,10,0.0,-0.0,0.1,17,32482.581909586726,0.1,1.57542003E9,,,,0,,6,2.0,1.57542003E9
Raw,1944835935,684600000000,18,0.0,-1295443066400252672,0.0,333.564095198152,-360.05293296068595,0.0,4,35,0.0,0,0,10,0.0,-0.0,0.1,16,0.0,0.1,1.56109798E9,,,,0,,5,2.0,1.56109798E9
Raw,1944835935,684600000000,18,0.0,-1295443066400252672,0.0,333.564095198152,-360.05293296068595,0.0,4,1,0.0,0,0,10,0.0,-0.0,0.1,16,0.0,0.1,1.56109798E9,,,,0,,5,2.0,1.56109798E9
Raw,1944835935,684600000000,18,0.0,-1295443066400252672,0.0,333.564095198152,-360.05293296068595,0.0,4,2,0.0,0,0,10,0.0,-0.0,0.1,16,0.0,0.1,1.56109798E9,,,,0,,5,2.0,1.56109798E9
Raw,1944835935,684600000000,18,0.0,-1295443066400252672,0.0,333.564095198152,-360.05293296068595,0.0,4,3,0.0,0,0,10,0.0,-0.0,0.1,16,0.0,0.1,1.56109798E9,,,,0,,5,2.0,1.56109798E9
Raw,1944835936,684600000000,18,0.0,-1295443066400252672,0.0,333.564095198152,-360.05293296068595,0.0,4,4,0.0,0,0,9,0.0,-497.8215897904755,0.30000000715255754,16,0.0,0.1,1.56109798E9,,,,0,,5,2.0,1.56109798E9
Raw,1944835936,684600000000,18,0.0,-1295443066400252672,0.0,333.564095198152,-360.05293296068595,0.0,4,5,0.0,0,0,201,0.0,399.6559411927278,0.5,16,0.0,0.1,1.56109798E9,,,,0,,5,2.0,1.56109798E9
Raw,1944835936,684600000000,18,0.0,-1295443066400252672,0.0,333.564095198152,-360.05293296068595,0.0,4,19,0.0,16399,566950923621258,7,25.0,-493.38970076906435,0.05,17,1.1051646761383201E8,0.1,1.57542003E9,,,,2,,1,2.0,1.57542003E9
Raw,1944835936,684600000000,18,0.0,-1295443066400252672,0.0,333.564095198152,-360.05293296068595,0.0,4,30,0.0,3,5213021,125,13.0,394.92015132654353,0.5,17,1974.2724706486747,0.1,1.57542003E9,,,,0,,1,2.0,1.57542003E9
Raw,1944835936,684600000000,18,0.0,-1295443066400252672,0.0,333.564095198152,-360.05293296068595,0.0,4,9,0.0,35,10317880,616,18.0,-625.5004401068478,0.30000000715255754,17,3.450137612979712E7,0.1,1.60087501E9,,,,1,,3,2.0,1.60087501E9
Raw,1944835936,684600000000,18,0.0,-1295443066400252672,0.0,333.564095198152,-360.05293296068595,0.0,4,12,0.0,16399,566936922254193,6,27.0,-342.26591131534536,0.030000001144409223,17,1.1061576118190035E8,0.1,1.56109798E9,,,,2,,5,2.0,1.56109798E9
Raw,1944835936,684600000000,18,0.0,-1295443066400252672,0.0,333.564095198152,-360.05293296068595,0.0,4,1,0.0,3,8737921,334,14.0,423.71171402679374,0.5,17,844.8433017160572,0.1,1.57542003E9,,,,0,,1,2.0,1.57542003E9
Raw,1944835936,684600000000,18,0.0,-1295443066400252672,0.0,333.564095198152,-360.05293296068595,0.0,4,3,0.0,3,7206543,201,13.0,-376.47778933438315,0.5,17,-3011.548031125796,0.1,1.57542003E9,,,,0,,1,2.0,1.57542003E9
Raw,1944835937,684600000000,18,0.0,-1295443066400252672,0.0,333.564095198152,-360.05293296068595,0.0,4,6,0.0,3,2916813,13,17.0,-666.9453593288847,0.30000000715255754,17,-3331.4678226915453,0.1,1.57542003E9,,,,1,,1,2.0,1.57542003E9
Raw,1944835937,684600000000,18,0.0,-1295443066400252672,0.0,333.564095198152,-360.05293296068595,0.0,4,7,0.0,3,505349,125,15.0,545.2324191943212,0.5,17,84596.9629272453,0.1,1.57542003E9,,,,0,,1,2.0,1.57542003E9
Raw,1944835937,684600000000,18,0.0,-1295443066400252672,0.0,333.564095198152,-360.05293296068595,0.0,4,21,0.0,3,19155935,52,13.0,468.45332969992893,0.5,18,-0.07507278539131326,0.1,1.57542003E9,,,,1,,1,2.0,1.57542003E9
Raw,1944835938,684600000000,18,0.0,-1295443066400252672,0.0,333.564095198152,-360.05293296068595,0.0,4,22,0.0,3,5197214,27,19.0,0.02529658860388381,0.30000000715255754,17,-39.827383907636474,0.1,1.57542003E9,,,,2,,1,2.0,1.57542003E9
Raw,1944835939,684600000000,18,0.0,-1295443066400252672,0.0,333.564095198152,-360.05293296068595,0.0,4,28,0.0,3,10880214,161,9.0,-366.0015268544208,0.30000000715255754,18,-0.10980117458584723,0.1,1.57542003E9,,,,0,,1,2.0,1.57542003E9
Raw,1944835940,684600000000,18,0.0,-1295443066400252672,0.0,333.564095198152,-360.05293296068595,0.0,4,22,0.0,3,15618050,52,14.0,-580.9409671743263,0.5,17,-5198.45028958042,0.1,1.56109798E9,,,,1,,5,2.0,1.56109798E9
Raw,1944835941,684600000000,18,0.0,-1295443066400252672,0.0,333.564095198152,-360.05293296068595,0.0,4,24,0.0,16399,566936923161985,6,27.0,-232.8346485092555,0.030000001144409223,17,1.1067356222567034E8,0.1,1.56109798E9,,,,2,,5,2.0,1.56109798E9
Raw,1944835941,684600000000,18,0.0,-1295443066400252672,0.0,333.564095198152,-360.05293296068595,0.0,4,26,0.0,3,5464182,6,27.0,298.4131402960354,0.030000001144409223,17,1.1154035954142152E8,0.1,1.56109798E9,,,,2,,5,2.0,1.56109798E9
Raw,1944835941,684600000000,18,0.0,-1295443066400252672,0.0,333.564095198152,-360.05293296068595,0.0,4,17,0.0,16399,566950927068307,7,26.0,-301.6269706762968,0.05,17,-49435.071284985956,0.1,1.57542003E9,,,,2,,1,2.0,1.57542003E9
Raw,1944835941,684600000000,18,0.0,-1295443066400252672,0.0,333.564095198152,-360.05293296068595,0.0,4,193,0.0,3,13690692,125,9.0,-171.59085124361013,0.5,17,-2921.292823753621,0.1,1.57542003E9,,,,0,,4,2.0,1.57542003E9
Raw,1944835941,684600000000,18,0.0,-1295443066400252672,0.0,333.564095198152,-360.05293296068595,0.0,4,194,0.0,3,17649630,52,15.0,-159.42622794948485,0.5,17,-12941.467827593013,0.1,1.57542003E9,,,,1,,4,2.0,1.57542003E9
Raw,1944835941,684600000000,18,0.0,-1295443066400252672,0.0,333.564095198152,-360.05293296068595,0.0,4,19,0.0,35,12714542,881,15.0,-107.52073768350262,0.5,17,-5720.081330768395,0.1,1.60368755E9,,,,0,,3,2.0,1.60368755E9
Raw,1944835942,684600000000,18,0.0,-1295443066400252672,0.0,333.564095198152,-360.05293296068595,0.0,4,195,0.0,3,8699214,161,18.0,-106.78255583672993,0.30000000715255754,17,-6086.860989037631,0.1,1.57542003E9,,,,1,,4,2.0,1.57542003E9
Raw,1944835942,684600000000,18,0.0,-1295443066400252672,0.0,333.564095198152,-360.05293296068595,0.0,4,25,0.0,3072,16209854,9,18.0,-493.9383386865658,0.30000000715255754,17,-118202.67530641209,0.1,1.17645005E9,,,,2,,6,3.0,1.17645005E9
Raw,1944835942,684600000000,18,0.0,-1295443066400252672,0.0,333.564095198152,-360.05293296068595,0.0,4,18,0.0,35,10174739,551,9.0,313.8279350529851,0.5,17,6.586000186105869E7,0.1,1.60031245E9,,,,0,,3,2.0,1.60031245E9
Raw,1944835942,684600000000,18,0.0,-1295443066400252672,0.0,333.564095198152,-360.05293296068595,0.0,4,19,0.0,3,16846836,42,19.0,-254.28401771237273,0.30000000715255754,17,-22843.1696156058,0.1,1.56109798E9,,,,1,,5,2.0,1.56109798E9
Raw,1944835942,684600000000,18,0.0,-1295443066400252672,0.0,333.564095198152,-360.05293296068595,0.0,4,16,0.0,35,15240619,62,18.0,125.81175937512822,0.30000000715255754,17,2.711479659728586E8,0.1,1.60143744E9,,,,1,,3,2.0,1.60143744E9
Raw,1944835942,684600000000,18,0.0,-1295443066400252672,0.0,333.564095198152,-360.05293296068595,0.0,4,15,0.0,35,5581441,551,14.0,694.0455528162232,0.5,17,1.6457078619530374E7,0.1,1.602E9,,,,0,,3,2.0,1.602E9
Raw,1944835942,684600000000,18,0.0,-1295443066400252672,0.0,333.564095198152,-360.05293296068595,0.0,4,8,0.0,3,18607823,42,18.0,-162.53794118816353,0.30000000715255754,17,-47123.29179858476,0.1,1.56109798E9,,,,1,,5,2.0,1.56109798E9
Raw,1944835942,684600000000,18,0.0,-1295443066400252672,0.0,333.564095198152,-360.05293296068595,0.0,4,25,0.0,3072,16209864,17,21.0,-493.6972182683562,0.30000000715255754,17,-50664.17610803723,0.1,1.57542003E9,,,,2,,6,2.0,1.57542003E9
Raw,1944835942,684600000000,18,0.0,-1295443066400252672,0.0,333.564095198152,-360.05293296068595,0.0,4,3,0.0,35,2277052,551,11.0,-556.4585816780999,0.5,17,2.9977683734374147E7,0.1,1.60481254E9,,,,0,,3,2.0,1.60481254E9
Raw,1944835942,684600000000,18,0.0,-1295443066400252672,0.0,333.564095198152,-360.05293296068595,0.0,4,20,0.0,35,1624040,881,9.0,-556.4624320274734,0.5,17,2615969.4373207437,0.1,1.60312499E9,,,,0,,3,2.0,1.60312499E9
Raw,1944835942,684600000000,18,0.0,-1295443066400252672,0.0,333.564095198152,-360.05293296068595,0.0,4,13,0.0,16399,566936875630642,7,24.0,-246.9956387269187,0.05,17,-32652.734598433482,0.1,1.56109798E9,,,,2,,5,2.0,1.56109798E9
Raw,1944835943,684600000000,18,0.0,-1295443066400252672,0.0,333.564095198152,-360.05293296068595,0.0,4,11,0.0,3072,27262341,126,11.0,-213.01819118612616,0.5,17,1.1069826363391384E8,0.1,1.57542003E9,,,,0,,6,2.0,1.57542003E9
NMEA,$GPGSV,3,1,12,01,41,037,14,03,40,109,13,06,25,228,17,07,13,184,15*73
,1611408533003
NMEA,$GPGSV,3,2,12,08,08,081,,14,78,344,,17,44,310,26,19,26,289,25*73
,1611408533003
NMEA,$GPGSV,3,3,12,21,20,043,13,22,36,075,19,28,68,336,09,30,33,214,13*7C
,1611408533003
NMEA,$GLGSV,3,1,10,66,06,046,,67,12,094,11,68,01,141,,73,39,320,18*60
,1611408533003
NMEA,$GLGSV,3,2,10,79,22,166,14,80,69,224,18,81,01,049,,82,39,018,09*60
,1611408533003
NMEA,$GLGSV,3,3,10,83,51,305,15,84,11,251,09*6A
,1611408533003
NMEA,$BDGSV,4,1,16,201,42,130,,202,40,228,,203,54,187,,204,30,115,*6F
,1611408533003
NMEA,$BDGSV,4,2,16,205,20,249,,207,77,105,,208,75,216,18,210,76,331,*65
,1611408533003
NMEA,$BDGSV,4,3,16,212,37,280,27,213,47,217,24,219,18,079,19,222,19,133,14*68
,1611408533003
NMEA,$BDGSV,4,4,16,224,47,288,27,226,50,205,27,234,14,266,,235,42,041,*6B
,1611408533003
NMEA,$QZGSV,1,1,03,193,20,136,09,194,45,152,15,195,65,054,18*6B
,1611408533003
NMEA,$GAGSV,3,1,09,111,62,267,11,112,51,029,,121,05,,,124,79,176,*56
,1611408533003
NMEA,$GAGSV,3,2,09,125,40,317,21,131,28,147,,133,03,046,,136,15,238,*66
,1611408533003
NMEA,$GAGSV,3,3,09,125,40,317,18,1*72
,1611408533003
NMEA,$GPRMC,132853.00,A,3030.724755,N,11424.416818,E,000.0,087.4,230121,,E,A*1B
,1611408533003
Fix,gps,30.512078,114.406942,31.748004,0.000000,4.000000,1611408534000
NMEA,$GPGGA,132854.00,3030.724686,N,11424.416512,E,1,20,0.6,31.7,M,,M,,*44
,1611408534004
NMEA,$GNGSA,A,3,1,3,6,7,17,19,21,22,28,30,208,212,1.4,0.6,1.2*20
,1611408534004
NMEA,$GPGSA,A,3,1,3,6,7,17,19,21,22,28,30,,,1.4,0.6,1.2*35
,1611408534004
NMEA,$GPGSA,A,3,,,,,,,,,,,,,1.4,0.6,1.2,8*26
,1611408534004
NMEA,$GLGSA,A,3,67,73,79,80,82,83,84,,,,,,1.4,0.6,1.2*20
,1611408534004
NMEA,$BDGSA,A,3,208,212,213,219,222,224,226,,,,,,1.4,0.6,1.2*12
,1611408534004
NMEA,$BDGSA,A,3,,,,,,,,,,,,,1.4,0.6,1.2,7*38
,1611408534004
NMEA,$GAGSA,A,3,111,125,,,,,,,,,,,1.4,0.6,1.2*24
,1611408534004
NMEA,$GAGSA,A,3,125,,,,,,,,,,,,1.4,0.6,1.2,1*08
,1611408534004
NMEA,$QZGSA,A,3,194,195,,,,,,,,,,,1.4,0.6,1.2*2F
,1611408534004
NMEA,$PJGSA,A,3,,,,,,,,,,,,,1.4,0.6,1.2*3F
,1611408534004
NMEA,$GPGSV,3,1,12,01,41,037,13,03,40,109,13,06,25,228,17,07,13,184,16*77
,1611408534004
Raw,1944836948,685600000000,18,0.0,-1295443066400252928,0.0,333.564095198152,-360.1772199784612,0.0,4,7,0.0,0,0,10,0.0,-0.0,0.1,17,-11613.202668856722,0.1,1.56109798E9,,,,0,,5,2.0,1.56109798E9
Raw,1944836948,685600000000,18,0.0,-1295443066400252928,0.0,333.564095198152,-360.1772199784612,0.0,4,34,0.0,0,0,10,0.0,-0.0,0.1,16,0.0,0.1,1.56109798E9,,,,0,,5,2.0,1.56109798E9
Raw,1944836948,685600000000,18,0.0,-1295443066400252928,0.0,333.564095198152,-360.1772199784612,0.0,4,8,0.0,0,0,10,0.0,-0.0,0.1,17,5354.070130943857,0.1,1.57542003E9,,,,0,,1,2.0,1.57542003E9
Raw,1944836948,685600000000,18,0.0,-1295443066400252928,0.0,333.564095198152,-360.1772199784612,0.0,4,2,0.0,0,0,10,0.0,-0.0,0.1,17,-2968.44406899215,0.1,1.59975002E9,,,,0,,3,2.0,1.59975002E9
Raw,1944836949,685600000000,18,0.0,-1295443066400252928,0.0,333.564095198152,-360.1772199784612,0.0,4,14,0.0,0,0,10,0.0,-0.0,0.1,17,-16877.696745645415,0.1,1.57542003E9,,,,0,,1,2.0,1.57542003E9
Raw,1944836949,685600000000,18,0.0,-1295443066400252928,0.0,333.564095198152,-360.1772199784612,0.0,4,193,0.0,0,0,10,0.0,-0.0,0.1,17,-2921.292823753621,0.1,1.57542003E9,,,,0,,4,2.0,1.57542003E9
Raw,1944836949,685600000000,18,0.0,-1295443066400252928,0.0,333.564095198152,-360.1772199784612,0.0,4,12,0.0,0,0,10,0.0,-0.0,0.1,17,17064.72889753314,0.1,1.57542003E9,,,,0,,6,2.0,1.57542003E9
Raw,1944836949,685600000000,18,0.0,-1295443066400252928,0.0,333.564095198152,-360.1772199784612,0.0,4,24,0.0,0,0,10,0.0,-0.0,0.1,17,-1409.932040897469,0.1,1.57542003E9,,,,0,,6,2.0,1.57542003E9
Raw,1944836949,685600000000,18,0.0,-1295443066400252928,0.0,333.564095198152,-360.1772199784612,0.0,4,10,0.0,0,0,10,0.0,-0.0,0.1,17,-35994.42748922845,0.1,1.56109798E9,,,,0,,5,2.0,1.56109798E9
Raw,1944836949,685600000000,18,0.0,-1295443066400252928,0.0,333.564095198152,-360.1772199784612,0.0,4,31,0.0,0,0,10,0.0,-0.0,0.1,17,32482.581909586726,0.1,1.57542003E9,,,,0,,6,2.0,1.57542003E9
Raw,1944836949,685600000000,18,0.0,-1295443066400252928,0.0,333.564095198152,-360.1772199784612,0.0,4,35,0.0,0,0,10,0.0,-0.0,0.1,16,0.0,0.1,1.56109798E9,,,,0,,5,2.0,1.56109798E9
Raw,1944836949,685600000000,18,0.0,-1295443066400252928,0.0,333.564095198152,-360.1772199784612,0.0,4,1,0.0,0,0,10,0.0,-0.0,0.1,16,0.0,0.1,1.56109798E9,,,,0,,5,2.0,1.56109798E9
Raw,1944836949,685600000000,18,0.0,-1295443066400252928,0.0,333.564095198152,-360.1772199784612,0.0,4,2,0.0,0,0,10,0.0,-0.0,0.1,16,0.0,0.1,1.56109798E9,,,,0,,5,2.0,1.56109798E9
Raw,1944836949,685600000000,18,0.0,-1295443066400252928,0.0,333.564095198152,-360.1772199784612,0.0,4,3,0.0,0,0,9,0.0,-497.8215897904755,0.30000000715255754,16,0.0,0.1,1.56109798E9,,,,0,,5,2.0,1.56109798E9
Raw,1944836949,685600000000,18,0.0,-1295443066400252928,0.0,333.564095198152,-360.1772199784612,0.0,4,4,0.0,0,0,201,0.0,399.6559411927278,0.5,16,0.0,0.1,1.56109798E9,,,,0,,5,2.0,1.56109798E9
Raw,1944836949,685600000000,18,0.0,-1295443066400252928,0.0,333.564095198152,-360.1772199784612,0.0,4,5,0.0,0,0,7,0.0,-497.9162117852943,0.05,16,0.0,0.1,1.56109798E9,,,,0,,5,2.0,1.56109798E9
Raw,1944836950,685600000000,18,0.0,-1295443066400252928,0.0,333.564095198152,-360.1772199784612,0.0,4,19,0.0,16399,566951923622905,7,25.0,-493.49731297926303,0.05,17,1.1051597414590444E8,0.1,1.57542003E9,,,,2,,1,2.0,1.57542003E9
Raw,1944836950,685600000000,18,0.0,-1295443066400252928,0.0,333.564095198152,-360.1772199784612,0.0,4,30,0.0,3,5211690,125,13.0,394.7370819374659,0.5,17,2368.8879765446545,0.1,1.57542003E9,,,,1,,1,2.0,1.57542003E9
Raw,1944836950,685600000000,18,0.0,-1295443066400252928,0.0,333.564095198152,-360.1772199784612,0.0,4,9,0.0,35,10319971,616,19.0,-624.4890575704435,0.30000000715255754,17,3.561432641035343E7,0.1,1.60087501E9,,,,1,,3,2.0,1.60087501E9
Raw,1944836950,685600000000,18,0.0,-1295443066400252928,0.0,333.564095198152,-360.1772199784612,0.0,4,12,0.0,16399,566937922255339,7,25.0,-342.23106430650745,0.05,17,1.1061541894863753E8,0.1,1.56109798E9,,,,2,,5,2.0,1.56109798E9
Raw,1944836950,685600000000,18,0.0,-1295443066400252928,0.0,333.564095198152,-360.1772199784612,0.0,4,1,0.0,3,8736512,125,13.0,424.2298676464409,0.5,17,1268.6531115113255,0.1,1.57542003E9,,,,0,,1,2.0,1.57542003E9
Raw,1944836950,685600000000,18,0.0,-1295443066400252928,0.0,333.564095198152,-360.1772199784612,0.0,4,3,0.0,3,7207799,52,13.0,-377.13809118937945,0.5,17,-3388.3230895438237,0.1,1.57542003E9,,,,1,,1,2.0,1.57542003E9
Raw,1944836950,685600000000,18,0.0,-1295443066400252928,0.0,333.564095198152,-360.1772199784612,0.0,4,6,0.0,3,2919047,81,17.0,-666.921807815517,0.30000000715255754,17,-3998.6670041427788,0.1,1.57542003E9,,,,1,,1,2.0,1.57542003E9
Raw,1944836950,685600000000,18,0.0,-1295443066400252928,0.0,333.564095198152,-360.1772199784612,0.0,4,7,0.0,3,503527,125,16.0,544.5983692481349,0.5,17,85141.88818677301,0.1,1.57542003E9,,,,0,,1,2.0,1.57542003E9
Raw,1944836950,685600000000,18,0.0,-1295443066400252928,0.0,333.564095198152,-360.1772199784612,0.0,4,21,0.0,3,19154385,201,15.0,468.46189547041774,0.5,17,468.26948669267506,0.1,1.57542003E9,,,,0,,1,2.0,1.57542003E9
Raw,1944836950,685600000000,18,0.0,-1295443066400252928,0.0,333.564095198152,-360.1772199784612,0.0,4,22,0.0,3,5197210,161,19.0,0.5908145635776744,0.30000000715255754,17,-39.648927090123905,0.1,1.57542003E9,,,,1,,1,2.0,1.57542003E9
Raw,1944836950,685600000000,18,0.0,-1295443066400252928,0.0,333.564095198152,-360.1772199784612,0.0,4,28,0.0,3,10881397,52,9.0,-365.8130160233445,0.5,17,-366.059659478117,0.1,1.57542003E9,,,,0,,1,2.0,1.57542003E9
Raw,1944836950,685600000000,18,0.0,-1295443066400252928,0.0,333.564095198152,-360.1772199784612,0.0,4,22,0.0,3,15619983,201,14.0,-581.2253518201151,0.5,17,-5779.568966991278,0.1,1.56109798E9,,,,1,,5,2.0,1.56109798E9
Raw,1944836950,685600000000,18,0.0,-1295443066400252928,0.0,333.564095198152,-360.1772199784612,0.0,4,24,0.0,16399,566937923162761,6,27.0,-232.82734036596236,0.030000001144409223,17,1.1067332939186843E8,0.1,1.56109798E9,,,,2,,5,2.0,1.56109798E9
Raw,1944836950,685600000000,18,0.0,-1295443066400252928,0.0,333.564095198152,-360.1772199784612,0.0,4,26,0.0,3,5463201,7,26.0,298.2485664180196,0.05,17,1.1154065779804634E8,0.1,1.56109798E9,,,,2,,5,2.0,1.56109798E9
Raw,1944836950,685600000000,18,0.0,-1295443066400252928,0.0,333.564095198152,-360.1772199784612,0.0,4,17,0.0,16399,566951927069311,7,25.0,-301.5779976983089,0.05,17,-49736.69019962225,0.1,1.57542003E9,,,,2,,1,2.0,1.57542003E9
Raw,1944836951,685600000000,18,0.0,-1295443066400252928,0.0,333.564095198152,-360.1772199784612,0.0,4,194,0.0,3,17650156,34,16.0,-159.77617887324175,0.5,17,-13101.029276493813,0.1,1.57542003E9,,,,2,,4,2.0,1.57542003E9
Raw,1944836951,685600000000,18,0.0,-1295443066400252928,0.0,333.564095198152,-360.1772199784612,0.0,4,19,0.0,35,12714890,881,15.0,-106.7661139921668,0.5,17,-5826.741775281258,0.1,1.60368755E9,,,,0,,3,2.0,1.60368755E9
Raw,1944836951,685600000000,18,0.0,-1295443066400252928,0.0,333.564095198152,-360.1772199784612,0.0,4,195,0.0,3,8699568,27,19.0,-107.19687489614653,0.30000000715255754,17,-6193.962219387057,0.1,1.57542003E9,,,,2,,4,2.0,1.57542003E9
Raw,1944836951,685600000000,18,0.0,-1295443066400252928,0.0,333.564095198152,-360.1772199784612,0.0,4,25,0.0,3072,16211502,9,19.0,-494.00725999950555,0.30000000715255754,17,-118696.63314735994,0.1,1.17645005E9,,,,2,,6,4.0,1.17645005E9
Raw,1944836951,685600000000,18,0.0,-1295443066400252928,0.0,333.564095198152,-360.1772199784612,0.0,4,18,0.0,35,10173692,551,9.0,319.06996274378935,0.5,17,6.707965988877099E7,0.1,1.60031245E9,,,,0,,3,2.0,1.60031245E9
Raw,1944836951,685600000000,18,0.0,-1295443066400252928,0.0,333.564095198152,-360.1772199784612,0.0,4,19,0.0,3,16847698,161,19.0,-254.08380564721543,0.30000000715255754,17,-23097.459895426335,0.1,1.56109798E9,,,,1,,5,2.0,1.56109798E9
Raw,1944836951,685600000000,18,0.0,-1295443066400252928,0.0,333.564095198152,-360.1772199784612,0.0,4,16,0.0,35,15240206,62,19.0,126.33754829675976,0.30000000715255754,17,2.7215597488278437E8,0.1,1.60143744E9,,,,1,,3,2.0,1.60143744E9
Raw,1944836951,685600000000,18,0.0,-1295443066400252928,0.0,333.564095198152,-360.1772199784612,0.0,4,15,0.0,35,5579127,551,14.0,693.2381303278099,0.5,17,1.6773565005089514E7,0.1,1.602E9,,,,0,,3,2.0,1.602E9
Raw,1944836951,685600000000,18,0.0,-1295443066400252928,0.0,333.564095198152,-360.1772199784612,0.0,4,8,0.0,3,18608361,13,18.0,-162.46041157499218,0.30000000715255754,17,-47285.79846201161,0.1,1.56109798E9,,,,1,,5,2.0,1.56109798E9
Raw,1944836951,685600000000,18,0.0,-1295443066400252928,0.0,333.564095198152,-360.1772199784612,0.0,4,25,0.0,3072,16211525,9,21.0,-493.5299418371392,0.30000000715255754,17,-51157.70754473817,0.1,1.57542003E9,,,,2,,6,2.0,1.57542003E9
Raw,1944836951,685600000000,18,0.0,-1295443066400252928,0.0,333.564095198152,-360.1772199784612,0.0,4,3,0.0,35,2278890,551,13.0,-556.527209593704,0.5,17,3.108797006225796E7,0.1,1.60481254E9,,,,1,,3,2.0,1.60481254E9
Raw,1944836951,685600000000,18,0.0,-1295443066400252928,0.0,333.564095198152,-360.1772199784612,0.0,4,20,0.0,35,1625900,881,9.0,-558.1660195397759,0.5,17,2720602.344930616,0.1,1.60312499E9,,,,0,,3,2.0,1.60312499E9
Raw,1944836951,685600000000,18,0.0,-1295443066400252928,0.0,333.564095198152,-360.1772199784612,0.0,4,13,0.0,16399,566937875631463,7,23.0,-246.95489011399403,0.05,17,-32899.715491313196,0.1,1.56109798E9,,,,2,,5,2.0,1.56109798E9
Raw,1944836952,685600000000,18,0.0,-1295443066400252928,0.0,333.564095198152,-360.1772199784612,0.0,4,11,0.0,3072,27263054,126,11.0,-213.39343291020768,0.5,17,1.1069805044541292E8,0.1,1.57542003E9,,,,0,,6,2.0,1.57542003E9
NMEA,$GPGSV,3,2,12,08,08,081,,14,79,344,,17,44,310,25,19,26,289,25*71
,1611408534004
NMEA,$GPGSV,3,3,12,21,20,043,15,22,36,075,19,28,68,336,09,30,33,214,13*7A
,1611408534004
NMEA,$GLGSV,3,1,10,66,06,046,,67,12,094,13,68,01,141,,73,39,320,19*63
,1611408534004
NMEA,$GLGSV,3,2,10,79,22,166,14,80,69,224,19,81,01,049,,82,39,018,09*61
,1611408534004
NMEA,$GLGSV,3,3,10,83,51,305,15,84,11,251,09*6A
,1611408534004
NMEA,$BDGSV,4,1,16,201,42,130,,202,40,228,,203,54,187,,204,30,115,*6F
,1611408534004
NMEA,$BDGSV,4,2,16,205,20,249,,207,77,105,,208,75,216,18,210,76,331,*65
,1611408534004
NMEA,$BDGSV,4,3,16,212,37,280,25,213,47,218,23,219,18,079,19,222,19,133,14*62
,1611408534004
NMEA,$BDGSV,4,4,16,224,47,288,27,226,50,205,26,234,14,266,,235,42,041,*6A
,1611408534004
NMEA,$QZGSV,1,1,03,193,20,136,,194,45,152,16,195,65,054,19*60
,1611408534004
NMEA,$GAGSV,3,1,09,111,62,267,11,112,51,029,,121,05,,,124,79,176,*56
,1611408534004
NMEA,$GAGSV,3,2,09,125,40,317,21,131,28,147,,133,03,046,,136,15,238,*66
,1611408534004
NMEA,$GAGSV,3,3,09,125,40,317,19,1*73
,1611408534004
NMEA,$GPRMC,132854.00,A,3030.724686,N,11424.416512,E,000.0,087.4,230121,,E,A*14
,1611408534004
Fix,gps,30.512065,114.406925,31.748004,0.000000,4.000000,1611408535000
NMEA,$GPGGA,132855.00,3030.723916,N,11424.415516,E,1,18,0.7,31.7,M,,M,,*49
,1611408535005
NMEA,$GNGSA,A,3,1,3,6,7,17,19,21,22,28,30,208,212,1.5,0.7,1.3*21
,1611408535005
NMEA,$GPGSA,A,3,1,3,6,7,17,19,21,22,28,30,,,1.5,0.7,1.3*34
,1611408535005
NMEA,$GPGSA,A,3,,,,,,,,,,,,,1.5,0.7,1.3,8*27
,1611408535005
NMEA,$GLGSA,A,3,67,73,79,80,82,83,84,,,,,,1.5,0.7,1.3*21
,1611408535005
NMEA,$BDGSA,A,3,208,212,213,219,222,224,226,,,,,,1.5,0.7,1.3*13
,1611408535005
NMEA,$BDGSA,A,3,,,,,,,,,,,,,1.5,0.7,1.3,7*39
,1611408535005
Raw,1944837936,686600000000,18,0.0,-1295443066400253440,0.0,333.564095198152,-360.235759314598,0.0,4,7,0.0,0,0,10,0.0,-0.0,0.1,17,-11613.202668856722,0.1,1.56109798E9,,,,0,,5,2.0,1.56109798E9
